station_name,station_code,station_lat,station_long
Taku ,TAKU,61.1609702,-149.8770255
Monu ,MANU,38.0070587,-119.0122589
Hilligrove ,HLG,34.0169444,-117.98
Malancha ,MLNH,33.4778854,-117.6233642
Lusadiya ,LSD,33.0680967,-117.3033709
Morena ,MRA,32.767107,-117.1941153
Silao ,SILO,20.952141,-101.4282369
Mor ,MOR,18.6813049,-99.1013498
Ray ,RAY,39.3354791,-93.9878427
Marenga ,MEZ,41.7927817,-92.0696253
Robertson ,ROB,36.5250666,-86.8621827
Faridabad New Town ,FDN,35.5174913,-86.5804473
Shalimar ,SHM,30.4457544,-86.5791189
Mandrak ,MXK,41.8111301,-86.2286336
Summer Hill ,SHZ,39.986756,-86.180353
Kandel Road ,KDLR,40.187861,-83.3653029
Amagura ,AGZ,23.1268522,-82.3079791
Masur ,MSR,41.2111676,-80.5378494
Laban ,LBN,37.400566,-76.284271
Salem Town ,SXT,42.51954,-70.8967155
Ditokcherra ,DTC,43.7384383,-65.9831903
Isand ,EN,64.963051,-19.020835
Kayar ,KAYR,14.9191667,-17.1211111
Kolda ,KFF,12.9107495,-14.9505671
Kita ,KITA,13.05,-9.4833333
Mirchadhori ,MCQ,39.8063446,-8.2684023
Lorha ,LOA,10.65,-2.8666667
Mohope ,MHPE,54.851096,-2.350721
Vatlur ,VAT,39.481508,-0.36
Banas ,BNS,44.810999,1.909735
Bar ,BAR,44.1887187,2.0764229
Chata ,CHJ,48.896391,2.160098
Maur ,MAUR,44.711069,2.198335
Guna ,GUNA,49.519051,3.267496
Veer ,VEER,51.3177448,3.9371368
Charaud ,CRW,44.592578,4.247616
Her ,HER,51.5368948,7.2009147
Bad ,BAD,46.6665896,7.277058
Ren ,REN,50.4166116,7.2861713
Mandal ,MDL,58.0276808,7.4533303
Bale ,BALE,47.5674422,7.5975507
Tori ,TORI,45.070312,7.6868565
Niwar ,NWR,46.3188212,7.8499714
Suisa ,SSIA,46.818188,8.227512
Kargi Road ,KGB,11.1037677,8.2851127
Muri ,MURI,47.2719036,8.3417691
Amli ,AMLI,58.7684458,8.4865147
Wadi ,WADI,47.2265324,8.6695707
Rahama ,RHMA,10.4141663,8.6903172
Panyam ,PNM,9.4091419,9.2106745
Korba ,KRBA,48.8414113,9.3608907
Lamta ,LTA,35.6702582,10.8825056
Soro ,SORO,55.442645,11.5609369
Naila ,NIA,50.3294246,11.7021823
Karna ,KAR,57.84634,11.80217
Padua ,PFU,45.4064349,11.8767611
Dabla ,DBLA,53.6602988,11.8993723
Tangarmunda ,TGM,52.5497162,11.9705061
Phiding ,PDJ,48.2695884,13.7164001
Butari ,BTR,45.4808108,13.8656858
Varnama ,VRM,57.1831605,14.0478214
Sisvinhalli ,SVHE,41.0363308,14.4466746
Bani ,BANI,53.1003969,14.6627037
Veli ,VELI,50.0596556,15.1071167
Sali ,SALI,43.9375282,15.162899
Margherita ,MRG,41.3739699,16.1511645
Kalmitar ,KLTR,56.6634447,16.356779
Kuri ,KIF,49.2985176,16.5314458
Pulla ,PUA,40.7928393,17.1011931
Potul ,POZ,54.2202928,18.0883671
Suku ,SUKU,45.9604273,18.1867423
Tisi ,TISI,49.569986,18.2214887
Kasu ,KASU,45.9532763,18.3984024
Rewa ,REWA,54.6308248,18.4968392
Panki ,PNK,50.8833333,18.75
Helem ,HML,54.6083804,18.8007998
Urma ,URMA,47.598213,19.013075
Sendra ,SEU,47.6795337,19.0668602
Mupa ,MUPA,47.469638,19.071428
Tivari ,TIW,42.0912106,19.089904
Modran ,MON,44.6666667,19.1833333
Roza Junction ,ROZA,50.3185619,19.1954601
Kunki ,KZU,53.5386907,20.3116329
Dabka ,DBKA,53.0151372,20.3652655
Gurra ,GRO,42.1790496,20.6690381
Sisarka ,SSKA,42.5865554,21.2643815
Kiroda ,KRC,45.7666667,21.3
Chalama ,CMZ,40.3043873,21.7909649
Kalana ,KALN,58.9240999,22.075
Kanalas Junction ,KNLS,58.6967125,22.5775359
Tamna ,TAO,44.5693647,23.0209913
Tangra ,TRA,42.1797222,23.5866666
Kotala ,KEN,62.2666667,24.0333333
Sindi ,SNI,58.402302,24.6553157
Tapa ,TAPA,59.2636411,25.9636326
Laseri ,LSE,58.3488962,26.6818498
Pakni ,PK,56.0766079,26.8302629
Pothia ,POT,36.951212,26.983194
Jama ,JAMA,59.3759603,28.6043387
Anas ,ANAS,30.5601191,31.0138047
Manabar ,MVF,30.1373897,31.2431115
Dilwa ,DLW,10.8194444,33.7227778
Kem ,KEM,64.95,34.6
Taru ,TR,31.783306,34.980238
Nazareth ,NZT,32.699635,35.303546
Basta ,BTS,33.8874848,35.503337
Nawa City ,NAC,32.8888889,36.0430556
Dara ,DARA,32.9248813,36.1762615
Nua ,NUA,50.004734,36.258171
Makudi ,MKDI,13.833333,39.4166669
Sarai ,SAI,53.7219444,40.9913889
Sason ,SSN,38.3333333,41.4166667
Mandhar ,MDH,16.8347222,42.0158333
Takia ,TQA,40.3287376,44.319394
Saheli ,SAHL,36.6938637,45.1341896
Kulali ,KUI,40.8255556,45.5408333
Uren ,UREN,57.46,45.7847
Orga ,ORGA,43.3,45.8666667
Kapan ,KPNA,39.2011111,46.415
Lusa ,LUSA,60.63282,47.251621
Miyana ,MINA,37.4211111,47.715
Parsabad ,PSB,39.6483333,47.9175
Mirhakur ,MIQ,33.8641667,47.9908333
Salwa ,SAL,29.3,48.0833333
Rahimabad ,RBD,37.0330556,50.3263889
Jasra ,JSR,26.1615769,50.4566612
Golsar ,GOZ,35.9092232,50.7702431
Salamatpur ,SMT,35.725782,51.4628867
Raisi ,RSI,35.6560471,51.4943057
Chaura ,CUX,25.69,51.51
Attar ,ATR,32.8525377,51.5600695
Parsa Bazar ,PRBZ,32.6404282,51.6643462
Lar Road ,LRD,27.6470439,54.3803993
Dubaha ,DUBH,25.0476643,55.1817407
Madha ,MA,25.2844444,56.3330556
Milak ,MIL,30.9560038,61.8040287
Farah Town ,FHT,32.4464635,62.1454133
Bhandak ,BUX,25.6866667,67.6
Gurhi ,GUX,31.1266667,67.6875
Pathankot Cantt ,PTKC,30.3262491,68.5515441
Chandia Road ,CHD,25.0457679,68.6512926
Pingleshwar ,PLW,23.0809569,68.8079041
Varvala ,VVA,22.2915735,68.9629011
Dwarka ,DWK,22.2441975,68.9684562
Mithapur ,MTHP,22.4058584,69.0312124
Okha ,OKHA,22.4666667,69.0713889
Bhatiya ,BHTA,22.0896269,69.2788136
Kalyanpur Road ,KPRD,22.049849,69.3346399
Phuleswar ,FLR,23.0983776,69.6102617
Porbandar ,PBR,21.6417069,69.6292654
Khambhaliya ,KMBL,22.2,69.65
Bhuj ,BHUJ,23.2419997,69.6669324
Lalpur Jam ,LPJ,22.2216959,69.6740304
Ranavav ,RWO,21.6833,69.75
Bhanvad ,BNVD,21.9333,69.7833
Gop Jam ,GOP,22.0366829,69.8910101
Jawaharnagar ,JWNR,23.3624519,70.0205404
Anjar ,AJE,23.115815,70.0294726
Jam Jodhpur Junction ,JDH,21.9025447,70.0337715
Jamnagar ,JAM,22.4707019,70.05773
Adipur ,AI,23.0723221,70.0890178
Gandhidham Junction. ,GIM,23.0833,70.1333
Gandhidham Bg ,GIMB,23.0687895,70.1479992
Paneli Moti ,PLM,21.87342,70.1559994
Alia Bada ,ALB,22.4455282,70.2088355
Bhayavadar ,BHY,21.8531533,70.2452971
Keshod ,KSD,21.2997164,70.2492882
Munabao ,MBF,25.7446275,70.2780362
Upleta ,UA,21.7333,70.2833
Chorvad Road ,CVR,21.0549532,70.2904059
Maliya Hatina ,MLHA,21.1592784,70.2995202
Jam Wanthali ,WTJ,22.4339198,70.3256534
Bhachau ,BCO,23.2930388,70.339045
Veraval ,VRL,20.9158979,70.3628516
Somnath ,SMNH,20.9060022,70.3843721
Junagadh Junction ,JND,22.060744,70.3875379
Jaliya Devani ,JALD,22.4192049,70.401535
Jallalabd ,JBD,34.4341667,70.4477778
Dhoraji ,DJI,21.7333,70.45
Navagadh ,NUD,21.522184,70.4578768
Hadmatiya Junction ,HM,22.4282522,70.4709448
Samakhiali ,SIO,23.3031522,70.505669
Samakhiali B G ,SIOB,23.3031522,70.505669
Jetalsar Junction ,JLR,21.7289583,70.5711141
Hadmadiya ,HRM,21.9743678,70.5919357
Padadhari ,PDH,22.4333,70.6
Betavad ,BEW,22.0230001,70.6157308
Chitrod ,COE,23.4093135,70.6767004
Gomta ,GTT,21.8739622,70.7299858
Sihapar ,SIPR,22.1591251,70.7941564
Rajkot Junction ,RJT,22.3113848,70.7992136
Gondal ,GDL,21.97,70.8
Bhakti Nagar ,BKNG,22.2724808,70.8090222
Kodiyar Mandir ,KDMR,20.9746448,70.8281284
Morbi ,MVI,22.8167,70.8333
Sindhawadar ,SDD,22.5474516,70.8937474
Jaisalmer ,JSM,26.9157487,70.9083443
Sakhpur ,SKR,21.226626,70.9635962
Adesar ,AAR,23.5580562,70.9814281
Daladi ,DL,22.5831787,71.0690907
Dodhi ,DHE,21.0490072,71.0702049
Hamira ,HMR,26.9996465,71.0765188
Virpur ,VRR,22.2050438,71.0794901
Piprala ,PFL,23.6541043,71.0854325
Morthala ,MXO,22.5987951,71.1151431
Santalpur ,SNLR,23.7630716,71.1671315
Halvad ,HVD,23.0167,71.1833
Than Junction ,THAN,22.578107,71.209946
Savarkundla ,SVKD,21.3358333,71.3077778
Liliya Mota ,LMO,21.5369075,71.3675927
Barmer ,BME,25.75,71.3833
Varahi ,VRX,23.7934418,71.4447785
Khileriyan ,KLYN,25.1808448,71.4477469
Rajula City ,RJU,21.0411065,71.4488241
Muli Road ,MOL,22.6388616,71.4599774
Dhrangdhra ,DHG,22.9832248,71.474461
Rajula Junction ,RLA,21.1038192,71.4790732
Utarlai ,UTL,25.8130304,71.4833652
Dhasa Junction ,DAS,21.7837522,71.516476
Shribdrya Lathi ,SBLT,27.0310609,71.5165687
Bhabhar ,BAH,24.0703321,71.5990999
Radhanpur ,RDHP,23.8286354,71.6139348
Nokhra ,NKRA,25.4783653,71.6183852
Sanganapur ,SNGR,22.3603297,71.6406361
Jorawarnagar Junction ,JVN,22.7128818,71.6410274
Surendranagar G ,SRGT,22.7201319,71.649536
Surendranagar ,SUNR,22.7201319,71.649536
Botad Junction ,BTD,22.1829406,71.6656666
Ranpur ,RUR,22.352089,71.7177611
Ujalvav ,UJ,21.9004594,71.7355566
Sanosra ,SOA,21.73,71.76
Lathidad ,LTD,22.1087818,71.7678444
Baytu ,BUT,25.8990081,71.7711448
Sarangpur ,SFW,22.1572526,71.7711448
Diyodar ,DEOR,24.1094713,71.7770757
Lakhtar ,LTR,22.8553612,71.791766
Limbdi ,LM,22.5663018,71.7963228
Bajud ,BJUD,21.754279,71.8393443
Ashapura Gomat ,AQG,26.9507296,71.8931708
Pokran ,POK,26.9205411,71.9165463
Ramdevra ,RDRA,27.0116441,71.9193859
Malanpur ,MLAR,23.2461792,71.92235
Sihor Gujarat ,SOJN,21.7216385,71.957917
Dhanera ,DQN,24.5063838,72.0258406
Bildi ,BILD,24.1889555,72.0290387
Bhildi ,BLDI,24.1889555,72.0290387
Viramgam Junction ,VG,23.1288677,72.0529273
Vartej ,VTJ,21.7333,72.0667
Lakadiya ,LKZ,21.4601375,72.0882938
Bhavanagar Para ,BVP,21.7605545,72.1134736
Nawapara Road ,NPD,21.7715261,72.1475684
Bhavnagar Trmus ,BVC,21.7644725,72.1519304
Disa ,DISA,24.2585031,72.1906721
Ambliyasan ,UMN,23.8236375,72.2023262
Raniwara ,RNV,24.7509966,72.2052874
Alai ,ALJ,39.7384947,72.217967
Jaitsar ,JES,26.5924847,72.2186128
Bhuteshwar ,BTSR,21.6860519,72.2200934
Balotra Junction ,BLT,25.8302356,72.2471852
Bhone ,BHNE,31.7746241,72.2556244
Marwar Bhinmal ,MBNL,25.0011207,72.2756839
Bhesana ,BFY,23.4893457,72.3414726
Bap ,BAF,27.401901,72.353082
Dholi ,DOL,22.583004,72.3599709
Siddhpur ,SID,23.9196207,72.3668366
Dharewada ,DRW,23.9739383,72.3799476
Malhar ,MAAR,27.2021355,72.3821672
Sanand ,SAU,22.9833,72.3833
Bhandu Motidau ,BHU,23.6951699,72.3866062
Kamli ,KMLI,23.8569205,72.3991831
Unjha ,UJA,23.8,72.4
Chhapi ,CHP,24.0338572,72.4006627
Jagudan ,JDN,23.5177289,72.4124991
Palanpur Junction ,PNU,24.1714077,72.4325927
Karjoda ,KRJD,24.2082134,72.4657568
Jhulasan ,JUL,23.3292624,72.474632
Chitrasani ,CTT,24.26778,72.483507
Ambli Road ,ABD,23.0281537,72.4922059
Pansar ,PN,23.3098845,72.4938607
Jethi ,JTY,24.3159895,72.514567
Mokalsar ,MKSR,25.6126552,72.514567
Iqbal Gadh ,IQG,24.3484327,72.5337927
Khodiyar ,KHD,23.141901,72.5352716
Chharodi ,CE,23.1221857,72.542296
Chandlodiya ,CLDY,23.0882841,72.5517775
Naranpur ,NANR,23.0575372,72.5530171
Piplaj ,PPF,22.9635115,72.5618894
Samdhari Junction ,SMR,25.8372398,72.5731642
Marwar Lohwat ,MWT,26.9818754,72.5901989
Sarotra Road ,SZA,24.378743,72.5907847
Kalgupur ,KCP,23.0282975,72.5936793
Maninagar ,MAN,22.9953645,72.6043212
Mani Nagar ,MANI,22.9953645,72.6043212
Vatva ,VTA,22.9726594,72.6180867
Sardarnagar ,SANR,23.0877591,72.6235608
Jalor ,JOR,25.3444799,72.6253763
Ahmedabad Junction ,ADI,23.1869736,72.6268859
Rakhiyal ,RKH,23.0181232,72.6290659
Gandhinagar Cap ,GNC,23.2337462,72.6293459
Raika Bagh ,RKB,27.3175039,72.6328569
Shri Amirgadh ,SIM,24.4046442,72.6409775
Gandhinagar Jpr ,GADJ,23.2248196,72.6463769
Geratpur ,GER,22.9193962,72.6498566
Naroda ,NRD,23.070887,72.6712894
Jodhpur Junction ,JU,26.4902597,72.6718944
Mahesana Junction ,MSH,23.9445109,72.6737887
Barejadi ,BJD,22.894531,72.6786796
Maval ,MAA,24.4532377,72.7038047
Nenpur ,NEP,22.8463301,72.724494
Gholvad ,GVD,20.0803294,72.730405
Bordi ,BIO,20.1165562,72.7400099
Dahanu Road ,DRD,19.9915124,72.7435193
Pandoli ,PMO,22.4660514,72.7459205
Dabhoda ,DBO,23.1781191,72.7473981
Boisar ,BOR,19.8,72.75
Vijapur ,VJF,23.5609405,72.7510921
Mhmdvd Kheda Road ,MHD,22.8194066,72.752108
Vangaon ,VGN,19.8754628,72.7540473
Kachnara Road ,KCNR,33.7730754,72.7571853
Palghar ,PLG,19.6935581,72.7655184
Abu Road ,ABR,24.4833,72.7833
Kelva Road ,KLV,19.6247486,72.791038
Amarpura ,APA,28.2068653,72.7924612
Gothaj ,GTE,22.7638862,72.7998479
Virar ,VR,19.4667,72.8
Ranoli ,RNO,22.3826508,72.8072342
Vasai Road ,BSR,19.4479031,72.8121339
Nandol Dehegam ,NHM,23.1736336,72.8158206
Sanjan ,SJN,20.1921126,72.8179439
Mumbai Central ,BCT,18.9707147,72.8194213
Surat ,ST,21.195,72.819444
Niwas Road ,NWB,19.0812726,72.833689
Saphale ,SAH,19.6042081,72.8338234
Mumbai Cst ,CSTM,18.9442225,72.8357343
Diyatara Road ,DTRD,27.7334712,72.8400636
Bandra Terminus ,BDTS,19.0635747,72.8404703
Dadar ,DDR,19.0214051,72.8426858
Bhuchchu ,BCU,19.1004561,72.844111
Byculla ,BY,18.974142,72.8441629
Nawagaon ,NVG,19.2529025,72.8441629
Borivali ,BVI,19.2257341,72.8456399
Prantij ,PRJ,23.4365838,72.8485939
Bhayandar ,BYR,19.310472,72.854041
Bhestan ,BHET,21.1302583,72.8545019
Chinchpada ,CPD,19.2292364,72.8596712
Sitalnagar ,STNR,19.283523,72.8660003
Nadiad Junction ,ND,22.7,72.8667
Andheri ,ADH,19.113645,72.8697339
Udvada ,UVD,20.4863158,72.8722249
Sayan ,SYN,21.31683,72.87766
Sachin ,SCH,21.08,72.88
Bhilad ,BLD,20.2768555,72.8810859
Maroli ,MRL,21.0243434,72.8899466
Kurla Junction ,CLA,19.070028,72.891574
Vapi ,VAPI,20.35969,72.8938
Utarsanda ,UTD,22.6576525,72.8958535
Vedchha ,VDH,21.1918554,72.9061903
Osiyan ,OSN,26.726,72.91
Karmad ,KMV,21.7264644,72.9150501
Niyol ,NOL,21.1722436,72.9187415
Hapa ,HAPA,23.5672019,72.9209564
Sonasan ,SNSN,23.486036,72.9231712
Kim ,KIM,21.4029863,72.925386
Swarupganj ,SRPJ,24.6545255,72.925386
Valsad ,BL,20.5992349,72.9342451
Navsari ,NVS,20.945263,72.9342451
Haripur ,HP,34.0006434,72.9371736
Ancheli ,ACL,20.8447344,72.9453184
Narangi ,NNGE,18.7489818,72.9467948
Atul ,ATUL,20.5459484,72.9490094
Goregaon Road ,GNO,19.1934775,72.9516975
Dhanari ,DN,24.7007551,72.9519622
Kolayat ,KLYT,27.8356946,72.9519622
Dungri ,DGI,20.6891176,72.9534385
Kosamba Junction ,KSB,21.4642116,72.9548226
Amalsad ,AML,20.8175942,72.9549149
Vikhran Road ,VKH,19.2066068,72.9571669
Joravasan ,JRS,20.7269675,72.9582193
Pardi ,PAD,20.5230393,72.9593587
Himmatnagar ,HMT,23.6123251,72.9603104
Chalthan ,CHM,21.1585625,72.9608202
Murud ,MRX,18.331926,72.9608202
Hamarapur ,HMRR,19.6974562,72.9637728
Panoli ,PAO,21.5310601,72.9637728
Hathuran ,HAT,21.49834,72.9682017
Bilimora Junction ,BIM,20.7651959,72.9705083
Gautamdhara ,GATD,19.1974138,72.9721922
Shamlaji Road ,SJS,24.0673119,72.9736805
Thane ,TNA,19.2183307,72.9780897
Marwar Mathanya ,MMY,26.5327682,72.9792273
Salawas ,SZ,26.1166667,72.9833333
Palsana ,PLSN,21.0834045,72.9873924
Bharuch Junction ,BH,21.7051358,72.9958748
Chavaj ,CVJ,21.7556943,73.0006774
Luni Junction ,LUNI,26.0029122,73.0026147
Vadod ,VXD,22.5092561,73.0036295
Ankleshwar Junction ,AKV,21.6264236,73.0151984
Bhagat Ki Kothi ,BGKT,26.2582954,73.0167426
Saraswatinagar ,SRWN,26.228718,73.0208166
Adas Road ,ADD,22.819652,73.025665
Patliputra ,PPTA,19.0150168,73.0294358
Kaikoram ,KKRM,33.7257228,73.0321406
Nabipur ,NIU,21.8116854,73.0390519
Diva ,DIVA,19.189301,73.042915
Bhiwandi Road ,BIRD,19.2687576,73.0458775
Gajner ,GJN,27.9499008,73.0464309
Anara ,ANR,22.9068303,73.0508582
Sirohi Road ,SOH,24.7988839,73.0515196
Hanwant ,HWT,26.3072871,73.0519275
Umar Tali ,UTA,33.6093443,73.0688817
Keshavganj ,KVJ,24.8557585,73.0719349
Palej ,PLJ,21.9212464,73.0788957
Nilaje ,NIIJ,19.1665044,73.0807402
Kotapar Road ,KPRR,19.2153614,73.0816727
Nandesari ,NDR,22.41637,73.086838
Taloja Panchand ,TPND,19.0696502,73.0870112
Anjani ,ANO,24.4786529,73.0966019
Pen ,PEN,18.734888,73.0966019
Shaitansinghngr ,STSN,27.3746033,73.0980773
Kosad ,KSE,21.4722222,73.1
Navade Road ,NVRD,19.0529842,73.1033797
Kalamboli ,KLMC,19.0318314,73.1054544
Lakodara ,LKD,21.996224,73.1054544
Roha ,ROHA,18.4320316,73.1143067
Bardoli ,BIY,21.1167,73.1167
Miyagam Karjan ,MYG,22.055216,73.1172573
Panvel ,PNVL,18.9894007,73.1175162
Mori Bera ,MOI,25.0338542,73.1334853
Nagothane ,NGTN,18.5446161,73.1364357
Rohat ,RT,25.9567516,73.139836
Ulhasnagar ,ULNR,19.2167,73.15
Banar ,BNO,26.3430678,73.1526623
Apta ,APTA,18.86381,73.152947
Bajva ,BJW,22.3393703,73.1556125
Itola ,ITA,22.154559,73.1556125
Vishvamitri ,VS,22.2879854,73.1747877
Jawai Bandh ,JWB,25.0718873,73.1762626
Rasayani ,RSYI,18.9003757,73.1762626
Badodar ,BDDR,22.3071588,73.1812187
Vadodara Junction ,BRC,22.3071588,73.1812187
Biroliya ,BRLY,25.165256,73.1880618
Makarpura ,MPR,22.2475172,73.1880618
Jajiwal ,JWL,26.367721,73.1910115
Ambarnath ,ABH,19.1825167,73.1926023
Shri Bhavnath ,SBHN,23.7372421,73.1986347
Kolad ,KOL,18.4077066,73.2101837
Bhimana ,BMN,24.8347311,73.2133174
Gangani ,GNNA,26.5022202,73.2146078
Badlapur ,BUD,19.1667854,73.2367896
Ambasa ,ABSA,24.0715635,73.2411506
Falna ,FA,25.244782,73.245992
Wadhwan City ,WC,18.3139413,73.2472329
Karambeli ,KEB,18.7202492,73.2499975
Matheran ,MAE,18.9886587,73.271179
Khimel ,KZQ,25.3119032,73.2750618
Timbarva ,TBV,22.017375,73.2794846
Mangaon ,MNI,18.2382428,73.281696
Udasar ,UDS,27.5599662,73.2892799
Vangani ,VGI,19.0928603,73.297175
Asranada ,AAS,26.3973428,73.305679
Asangaon ,ASO,19.4395693,73.3079544
Vaitarna ,VTN,19.6746066,73.3104419
Ratnagiri ,RN,16.990215,73.3120233
Bikaner Junction ,BKN,28.0145575,73.3159695
Neral ,NRL,19.0333,73.3167
Lotarva ,LTV,21.1401204,73.317812
Karjat ,KJT,18.9192249,73.3277223
Pali Marwar ,PMY,25.8067382,73.3310776
Bhivpuri Road ,BVS,18.9700103,73.3315382
Deshnok ,DSO,27.8,73.35
Kheri Salwa ,KSW,26.4335399,73.3852372
Kiwar Khed ,HKR,17.7195516,73.3968136
Khed ,KHED,17.7195516,73.3968136
Bhoke ,BOKE,17.0417386,73.3984311
Jamsar ,JMS,28.2567266,73.398867
Vyara ,VYA,21.1167,73.4
Karchha ,KDHA,23.7321367,73.4052923
Karanjadi ,KFD,17.9990416,73.409181
Vinhere ,VINH,17.9072092,73.409181
Lonavala ,LNL,18.75,73.4167
Diwankhavati ,DWV,17.8552102,73.4184815
Gajsinghpur ,GJS,29.6598368,73.4386466
Bomadra ,BOM,25.7813595,73.4393832
Somesar ,SOS,25.5192162,73.4519048
Jo Jagabor ,JO,23.7399827,73.453585
Shri Karanpur ,SRW,29.842133,73.456324
Ukshi ,UKC,17.1302746,73.4569684
Gadhwala ,GDW,27.9672383,73.4592701
Derol ,DRL,22.6301336,73.4619498
Kalol ,KLL,22.60993,73.46264
Malwan ,MWH,16.0667,73.4667
Nivasar ,NIV,16.9556017,73.4681081
Takal ,TAKL,33.3744342,73.4681081
Tung ,TUNG,18.6511366,73.471054
Kasara ,KSRA,19.6437849,73.472527
Kikakui Road ,KKRD,21.1281597,73.4726465
Nokha ,NOK,27.5562169,73.4731871
Malavli ,MVL,18.7450562,73.4754729
Visapur ,VPR,18.7216171,73.4901237
Dosvada ,DSD,21.1231609,73.49462
Savarda ,SVX,17.404655,73.5151327
Kamathe ,KMAH,17.4778658,73.5160553
Chiplun ,CHI,17.5333,73.5167
Debari ,DRB,23.2578992,73.519656
Sathin Road ,SWF,26.4968218,73.5199127
Bechhiwara ,BHWA,23.7867957,73.5226012
Rajkiawas ,RKZ,25.7506581,73.5236136
Odha ,ODHA,23.4376594,73.5255463
Banta Rnathgarh ,BGG,25.6022506,73.5275459
Pipar Road Junction ,PPR,26.3937293,73.5364938
Ukai Songadh ,USD,21.1624474,73.5520508
Sangmeshwar ,SGR,17.1871271,73.552051
Kharsaliya ,KRSA,22.7029953,73.5542596
Shri Ganganagar ,SGNR,29.4018554,73.5594128
Sindhudurg ,SNDD,16.3492193,73.5594128
Igatpuri ,IGP,19.6973156,73.5609361
Kamshet ,KMST,18.7658359,73.5623575
Napasar ,NPS,27.965266,73.5631941
Songadh ,SGD,21.166359,73.5645054
Adavali ,ADVI,16.9218301,73.5928138
Godhra Junction ,GDA,22.767,73.6067
Marwar Junction ,MJ,25.7227599,73.6094662
Baral ,BARL,33.1118691,73.616826
Kesri Singhpur ,KESR,29.9475208,73.6212417
Padampur ,PDF,29.707549,73.6256574
Belasar ,BLSR,27.9925871,73.6315448
Dhirera ,DHRR,28.216667,73.6333329
Auwa ,AUWA,25.6296708,73.637432
Vadgaon ,VDN,18.7381403,73.6389038
Basni ,BANE,27.1710746,73.6472387
Amlakhurd ,AMX,32.6735957,73.6558284
Kharia Khangarh ,KXG,26.6071371,73.6756947
Udaipur City ,UDZ,24.58,73.68
Talegaon ,TGN,18.7167,73.6833
Kudal ,KUDL,16.011095,73.686313
Kankavali ,KKW,16.2667,73.7
Begdewadi ,BGW,18.697671,73.705652
Vaibhavwadi Road ,VBW,16.5121414,73.7080388
Dungarpur ,DNRP,23.841668,73.7146623
Pahara ,PRE,24.5968958,73.7196227
Nasik Road ,NK,19.9366469,73.7296324
Ambagaon ,AGB,19.1123164,73.7301331
Dehu Road ,DEHR,18.683823,73.731781
Gotan ,GOTN,26.6554015,73.7330753
Zawar ,ZW,24.3539924,73.7330753
Nagaur ,NGO,27.1991222,73.740924
Zarap ,ZARP,15.9392519,73.7448437
Lunkaransar ,LKS,28.4960789,73.7458334
Phanda ,PUD,24.5213814,73.7463147
Rikhabdev Road ,RDD,23.997131,73.7480615
Sojat Road ,SOD,25.8654205,73.7507276
Sudsar ,SDF,27.986757,73.7595532
Ganagapur Road ,GUR,20.0113776,73.7605056
Sondha Road ,SCN,31.7668258,73.7758863
Akurdi ,AKRD,18.6527474,73.7801447
Sarupsar Jn ,SRPR,29.3502828,73.7904137
Kharwa Chanda ,KRCD,24.4177838,73.7942082
Navapur ,NWU,21.161766,73.7977928
Pimpri ,PMP,18.6297811,73.7997094
Pernem ,PERN,15.7167,73.8
Sant Road ,SAT,22.795576,73.800393
Chinchvad ,CCH,18.645919,73.800734
Bagri Nagar ,BQN,25.8957632,73.8069823
Jabri ,JBX,34.675,73.8111111
Nathdwara ,NDT,24.9333,73.8167
Marwar Mundwa ,MDW,27.0608377,73.8213213
Vadgaon Nila ,VDGN,18.5154742,73.8328547
Dapodi ,DAPD,18.581268,73.834386
Vasco Da Gama ,VSG,15.3860329,73.8440398
Chandawal ,CNL,26.002623,73.8448469
Mahajan ,MHJ,28.7897468,73.8448469
Lokmanya Nagar ,LKMN,18.5066779,73.8470523
Khemli ,KLH,24.6766867,73.8482595
Thivim ,THVM,15.6349283,73.8504981
Bobas ,BOBS,24.2622368,73.8580788
Jai Samand Road ,JYM,24.2212496,73.8688291
Sur Khand Ka Kh ,SZK,24.1188811,73.8805895
Vilavade ,VID,15.8672629,73.8830701
Alandi ,ALN,18.6725535,73.8893642
Ghorpuri ,GPR,18.5229518,73.8933596
Benisar ,BS,28.068019,73.895669
Suratgarh Junction ,SOG,29.3236392,73.9071395
Merta Road Junction ,MTD,26.7277544,73.9179036
Bhimal ,BIML,24.7638997,73.9183464
Phalodi ,PLC,26.72,73.92
Phalodi Junction ,PLCJ,26.72,73.92
Hadapsar ,HDP,18.4966667,73.9416667
Guriya ,GRI,25.9992906,73.9418603
Karmali ,KRMI,15.4962124,73.9418603
Verna ,VEN,15.3598717,73.9418603
Mavli Junction ,MVJ,24.6863431,73.9449137
Sarola ,SRL,18.1772341,73.9580246
Madgaon ,MAO,15.2719444,73.9583333
Biradhwal ,BDWL,29.1100214,73.9624327
Tikekarwadi ,TKWD,19.2404779,73.9683102
Satara ,STR,17.68,73.98
Kheduli ,KQW,26.7280968,73.9888797
Limkheda ,LMK,22.8358179,73.9903489
Sri Dungargarh ,SDGH,28.099873,74.009606
Fazilka ,FKA,30.4,74.0333
Khandbaara ,KBH,21.3031977,74.046169
Malikpur ,MLKP,32.6439144,74.0469034
Cancona ,CNO,14.9931145,74.0476378
Ranjani ,RNE,19.0456955,74.0505752
Degana Junction ,DNA,26.3974706,74.0607614
Sikar Junction ,SIKR,26.3974706,74.0607614
Wadegaon ,WDG,18.5568159,74.0681988
Charegaon ,CRN,17.3711007,74.0718702
Karanjgaon ,KAJG,20.0135982,74.0718702
Fatehnagar ,FAN,24.8062194,74.0946311
Jarandeshwar ,JSV,17.737058,74.0998274
Mangal Mahudi ,MAM,22.8488317,74.103441
Niphad ,NR,20.0799646,74.1093141
Shivani ,SHV,16.9720503,74.1298684
Karwar ,KAWR,14.8132769,74.1310684
Uruli ,URI,18.4874257,74.1333715
Talwandi ,TWB,30.9098749,74.1386767
Wathar ,WTR,17.8830943,74.1386767
Targaon ,TAZ,17.5103102,74.1504204
Jejuri ,JJR,18.2789607,74.1577421
Koregaon ,KRG,17.6966354,74.1607179
Gogameri ,GAMI,29.6822356,74.1614066
Ambale ,ABLE,18.4123239,74.1650991
Sadulshahr ,SDS,29.9095791,74.1739057
Karad ,KRD,17.2776764,74.1856472
Lonand ,LNN,18.041706,74.1861821
Sawantwadi Road ,SWV,15.9560402,74.19579
Rahimatpur ,RMP,17.5904097,74.1988555
Abohar ,ABS,30.1452928,74.1993043
Bigga ,BIGA,28.052553,74.201531
Pangri ,PJR,19.8178396,74.2017906
Bhupalsagar ,BSJ,24.8561415,74.209128
Nira ,NIRA,18.1021612,74.2119388
Somtane ,SMNE,19.9501747,74.2171989
Malthan ,MLM,18.8380523,74.227313
Lasalgaon ,LS,20.15,74.2333
Kulem ,QLM,15.3318441,74.239942
Nandurbar ,NDB,21.3755507,74.2427644
Amargarh ,AGR,29.8920581,74.2553471
Vikramnagar ,VRG,16.6974691,74.2634159
Islampur ,IPR,17.0500326,74.2651752
Kharak ,KHRK,31.5046317,74.2663499
Dholipal ,DPK,29.75,74.2666667
Dahod ,DHD,22.8333,74.2667
Yevat ,YT,18.4773886,74.2692839
Gur Market ,GRMT,16.7018903,74.2696506
Ranjangaon Road ,RNJD,18.6946907,74.272948
Choupale ,CUE,21.375552,74.294108
Hanumangarhtown ,HMO,29.6224435,74.2942208
Hanumangarh Junction ,HMH,29.6156068,74.2989877
Ankola ,ANKL,14.6667,74.3
Wan Road ,WND,32.4238953,74.309159
Valivade ,VV,16.7185172,74.3132878
Beawar ,BER,26.1,74.3167
Kapasan ,KIN,24.8764763,74.3176876
Nizampur ,NIP,21.1130244,74.3308864
Castle Rock ,CLR,15.39819,74.334704
Lakhewali ,LKW,30.4441945,74.3484833
Rukadi ,RKD,16.7217862,74.3512344
Lakhmapur ,LKY,20.5486065,74.3558148
Takari ,TKR,17.1309306,74.3616798
Manaksar ,MNSR,29.68009,74.3837635
Ranala ,RNL,21.3453237,74.3953998
Parsa Khera ,PKRA,24.9067639,74.3983317
Ladnun ,LAU,27.65,74.4
Tikaria ,TKYR,23.5253599,74.415922
Guru Harsahai ,GHS,30.7167,74.4167
Mananwala ,MOW,31.4729556,74.4195864
Kumta ,KT,14.427404,74.4203192
Kirloskarvadi ,KOV,17.0854162,74.421785
Kharwa ,KRW,26.2,74.4333333
Sherekan ,SRKN,29.5624672,74.4357089
Talchhapar ,TLC,27.8185932,74.4379073
Manmad Junction ,MMR,20.2498245,74.4380905
Hatkanagale ,HTK,16.7445608,74.4467007
Mordar ,MRDD,20.6816206,74.4467007
Honnavar ,HNA,14.2833,74.45
Gachhipura ,GCH,26.9545377,74.4540282
Khalilpur ,KIP,32.7050397,74.4540282
Ankai ,ANK,20.1844982,74.4547609
Jaswantgarh ,JSH,27.6523526,74.4584245
Patas ,PAA,18.4343863,74.4613553
Sangaria ,SGRA,29.7903276,74.4630794
Sujangarh ,SUJH,27.7,74.4667
Rajaldesar ,RJR,28.03,74.47
Lamana ,LNA,26.2361153,74.4815035
Chikodi Road ,CKR,16.411382,74.4832517
Kopargaon ,KPG,19.8833,74.4833
Yeola ,YL,20.0333,74.4833
Khunkhuna ,KKNA,27.3049903,74.4862655
Dantra ,DTRA,25.8239334,74.4877306
Murdeshwar ,MRDW,14.0938889,74.4905556
Sardarshahr ,SRDR,28.4324293,74.4935913
Sanvrad ,SVO,27.5170209,74.4943239
Londa Junction ,LD,15.4492213,74.4963384
Chitali ,CIT,17.4210511,74.4972541
Belgaum ,BGM,15.8667,74.5
Goneana ,GNA,30.4430979,74.5009168
Tibi ,TIBI,29.542627,74.503474
Sainagar Shirdi ,SNSI,19.777678,74.5038442
Mangaliyawas ,MLI,26.2745676,74.5046809
Malout ,MOT,30.1891769,74.505312
Malegaon Vyenku ,MGVK,20.5547497,74.5100291
Khanapur ,KNP,15.6384,74.51269
Muktsar ,MKS,30.4833,74.5167
Dulrasar ,DUS,28.2870344,74.5170319
Sanvatsar ,SNVR,19.8774715,74.5206942
Makrera ,MKRA,26.3294254,74.528751
Nagarsol ,NSL,20.1092692,74.528751
Bhatkal ,BTJL,13.9977623,74.5404694
Ghosunda ,GSD,24.8539239,74.5404694
Meghnagar ,MGN,22.9062054,74.5422147
Dhaban ,DABN,29.858419,74.5433988
Nandre ,NDE,16.9556517,74.5433988
Marwar Balia ,MBSK,27.357435,74.5448635
Jayasingpur ,JSP,16.7812047,74.5523643
Padhegaon ,PDGN,19.9317269,74.5546333
Dondaicha ,DDE,21.3275424,74.5609746
Sangli ,SLI,16.867,74.567
Gokak Road ,GKK,15.8967672,74.5713239
Didwana ,DIA,27.4024277,74.5756196
Saradhna ,SDH,16.8704,74.5796
Kashti ,KSTH,18.5498903,74.5829417
Madhavnagar ,MDVR,16.8857327,74.5858704
Pachhapur ,PCH,16.1924324,74.5858704
Tulwara Jhil ,TLI,29.5193422,74.5902635
Belvandi ,BWD,18.7205346,74.5939242
Firozpur City ,FZP,30.9167,74.6
Atari ,ATT,31.5978111,74.6019776
Vishrambag ,VRB,16.8453567,74.6019776
Rajmane ,RM,20.7082345,74.6107628
Ratangarh West ,RXW,28.0696655,74.6107628
Barchi Road ,BCRD,15.2818634,74.6145099
Daurai ,DOZ,26.3959445,74.6192694
Gangrar ,GGR,25.055934,74.6195474
Puntamba ,PB,19.7666681,74.6195474
Devlali ,DVL,19.4728013,74.6210115
Firozpur Cant ,FZR,30.9107385,74.6224755
Bijoor ,BIJR,13.8426019,74.6254036
Sareri ,SSR,25.6983484,74.6261356
Hamirgarh ,HMG,25.1881851,74.6268676
Chittaurgarh ,COR,24.8887435,74.6269216
Chittor ,CTO,24.8887435,74.6269216
Chanderiya ,CNA,24.9357592,74.6312596
Bhilwara ,BHL,25.35,74.6333
Byndoor ,BYNR,13.8685178,74.6341875
Ajmer Junction ,AII,26.4569859,74.6376644
Shambhupura ,SMP,24.7673502,74.6385793
Miraj Junction ,MRJ,16.8203641,74.6387623
Belapur ,BAP,19.5748694,74.6458987
Jammu Tawi ,JAT,32.6907547,74.6473625
Rahuri ,RRI,19.392678,74.6488264
Ellenabad ,ENB,29.45,74.65
Bijainagar ,BJNR,25.9267581,74.6506322
Bariwala ,BRW,30.5379151,74.6524859
Sonshelu ,SNSL,21.2666081,74.6546816
Gulabpura ,GBP,25.9031773,74.6605365
Nandgaon ,NGN,20.3094959,74.6605365
Giddarbaha ,GDB,30.2,74.6667
Panch Pipila ,PCN,23.0330124,74.6672604
Taklimiya ,TKMY,19.4536764,74.667855
Thandla Road ,THDR,23.032105,74.6714353
Vilad ,VL,19.1967596,74.6766367
Nimbahera ,NBH,24.6167,74.6833
Akolner ,AKR,19.0377357,74.6874914
Suladhal ,SUL,15.9615521,74.6927354
Kundapura ,KUDA,13.6333,74.7
Mandi Dabwali ,MBY,29.9671034,74.7001328
Shrigonda Road ,SGND,18.6169248,74.7043812
Bandanwara ,BDW,26.1298069,74.7044425
Kedgaon ,KDG,19.0703338,74.7044425
Nipani Vadgaon ,NPW,19.6016344,74.7124907
Makrana Junction ,MKN,27.05,74.7167
Melusar ,MELH,28.5100339,74.7220017
Khadki ,KK,18.3233302,74.7249281
Kalianpur ,KAP,13.3823632,74.7307807
Vambori ,VBR,19.2896623,74.7307807
Nasirabad ,NSD,26.3,74.7333
Ladpura ,LR,26.5088124,74.7351699
Alnavar Junction ,LWR,15.4243638,74.7380046
Rotegaon ,RGO,19.9655781,74.7395591
Bhairongarh ,BOG,23.1448664,74.7424852
Sindkheda ,SNK,21.2725651,74.7455078
Ahmadnagar ,ANG,19.0952075,74.7495916
Faridkot ,FDK,30.6667,74.75
Udupi ,UD,13.35,74.75
Bhigwan ,BGVN,18.2968353,74.7541889
Barkur ,BKJ,13.4736885,74.7541889
Shedbal ,SED,16.6909255,74.7583657
Ghatprabha ,GPB,16.2394587,74.7585775
Bamnia ,BMI,23.0959442,74.7615033
Nohar ,NHR,29.1833,74.7667
Khandala ,KAD,20.0319396,74.7688173
Padubidri ,PDD,13.1383805,74.770844
Jawad Road ,JWO,24.562666,74.7717429
Pune Junction ,PUNE,18.0833138,74.7732056
Solapur Junction ,SUR,18.0833138,74.7732056
Dhule ,DHI,20.9042201,74.7748979
Gegal Akhri ,GEK,26.5559646,74.7811943
Raybag ,RBG,16.4833,74.7833
Bisalwas Kalan ,BIWK,24.5002753,74.783324
Hol ,HOL,21.2014517,74.788098
Srinagar ,SINA,34.0836581,74.7973681
Mulki ,MULK,13.0655563,74.7977961
Arag ,ARAG,16.7858126,74.8009955
Surathkal ,SL,13.0030385,74.8097703
Kot Kapura ,KKP,30.5913084,74.811534
Sonai ,SYZ,19.3956022,74.8185446
Shri Madhopur ,SMPR,32.6424036,74.8198586
Ugar Khurd ,UGR,16.6563889,74.8252778
Nardana ,NDN,21.1879926,74.8258562
Mallanwala Khas ,MWX,31.0496683,74.8346296
Thokur ,TOK,12.96607,74.838203
Raoti ,RTI,23.2256238,74.8404784
Sangat ,SGF,30.0855734,74.8419405
Borvihir ,BRVR,20.7874632,74.8448648
Kuchaman City ,KMNC,27.15,74.85
Kudachi ,KUD,16.6333,74.85
Ullal ,ULL,12.8,74.85
Chinchli ,CNC,16.565973,74.853373
Mangalore Cntl ,MAQ,12.9141417,74.8559568
Kishangarh ,KSG,26.5870344,74.856397
Vijiypur Jammu ,VJPJ,32.7266016,74.8570259
Barang ,BRAG,28.8245748,74.8594853
Amritsar Junction ,ASR,31.6313691,74.8602163
Kankanadi ,KNKD,12.8647551,74.8609472
Nimach ,NMH,24.4763852,74.8624092
Kavathe Mahankl ,KVK,17.0089686,74.8653331
Jinti Road ,JNTR,18.3249044,74.8776801
Jath Road ,JTRD,17.0710606,74.8783021
Diplana ,DPLN,29.1794968,74.8828754
Shiupur ,SOP,21.3515381,74.8828754
Sirpur Town ,SRUR,21.3515381,74.8828754
Parsoli ,PSLI,25.1082221,74.8843371
Gangsar Jaitu ,GJUT,30.4520351,74.8881959
Shirud ,SHF,20.7335742,74.8916458
Manjeshwar ,MJS,12.7199692,74.8945692
Talguppa ,TLGP,14.2158245,74.9004158
Umed ,UMED,25.5636111,74.9011111
Bari Brahman ,BBMN,32.6382862,74.9036619
Uppala ,UAA,12.6707083,74.9121083
Harkia Khal ,HKL,24.3632824,74.9188828
Parewadi ,PRWD,27.3192195,74.9223386
Mordad Tanda ,MWK,20.6786156,74.9267229
Verka Junction ,VKA,31.665471,74.9315636
Katra ,KEA,32.9914962,74.9318173
Tiloniya ,TL,26.6515192,74.9369522
Bhatinda Junction ,BTI,30.210994,74.9454745
Chalgeri ,CLI,14.8537596,74.947181
Kumbla ,KMQ,12.596195,74.949109
Churu ,CUR,28.3,74.95
Padse ,PDP,21.1318064,74.9588702
Raman ,RMN,29.9500431,74.9617924
Fatehpur Skhwti ,FPS,28.000363,74.9704672
Gahlota ,GLTA,26.7000469,74.9734805
Kalanwali ,KNL,29.822711,74.9747614
Dhareshwar ,DRS,24.7431993,74.9793243
Rmgrh Shekhwati ,RSWT,28.166406,74.9799185
Malhargarh ,MLG,24.288053,74.983965
Kasaragod ,KGQ,12.5102239,74.9851678
Bathinda Cantt. ,BTIC,30.2226222,74.985702
Dhalgaon ,DLGN,17.1160114,74.9880895
Kanil ,KANJ,33.9420322,74.9895503
Morwani ,MRN,23.2647894,74.9961239
Makhu ,MXH,31.1033,74.9978
Chalisgaon Junction ,CSN,20.4637095,74.9988628
Ghagghar ,GHG,29.5857285,74.9994135
Dharwar ,DWR,15.45,75
Padla ,PDQ,24.6329078,75.0056186
Dhekvad ,DWD,15.4589236,75.007808
Lasur ,LSR,19.9282261,75.0114612
Bhoras Budrukh ,BFJ,20.5212871,75.0130928
Batala Junction ,BAT,31.7180316,75.015363
Washimbe ,WSB,18.2833438,75.0173035
Sirsa ,SSA,29.5335931,75.0177029
Vijay Pur ,VJP,32.5645199,75.0231457
Sagar Jambagaru ,SRF,14.170075,75.0239673
Indapur ,INP,18.1140272,75.0319086
Bekal Fort ,BFR,12.3923185,75.0326388
Bantawala ,BNTL,12.9,75.0333
Chintaman Ganes ,CNN,23.324309,75.040618
New Mal Junction ,NMZ,23.333552,75.0450408
Mahansar ,MWR,28.2015926,75.0465123
Ratlam Junction ,RTM,23.3405576,75.0504837
Pallikere ,PKP,12.3829718,75.0523534
Sindpan ,SDPN,24.1331777,75.0523534
Bissau ,BUB,28.240202,75.061362
Namli ,NLI,23.4593161,75.0625748
Mandasor ,MDS,24.0667,75.0667
Sambhar Lake ,SBR,26.9465364,75.0727956
Kot Fatteh ,KTF,30.1135049,75.0815557
Brayla Chaurasi ,BRLA,23.5552691,75.0925965
Mandalgarh ,MLGH,25.1977566,75.0932352
Kanhangad ,KZE,12.332473,75.0961549
Sakhun ,SK,26.7032959,75.0976147
Pophlaj ,PPJ,18.291812,75.097625
Dalauda ,DLD,23.9479015,75.1005344
Dhodhar ,DOD,23.7785188,75.1049137
Bangrod ,BOD,23.4054803,75.1063735
Nileshwar ,NLE,12.2409917,75.1172933
Samba ,SMBX,32.524913,75.1202978
Kalsur ,KVS,15.3647083,75.1239547
Jaora ,JAO,23.6382375,75.1253492
Dundlod Mkdgrh ,DOB,27.9085426,75.1316319
Udhampur ,UHP,32.9128588,75.1428632
Kajgaon ,KJ,20.5714077,75.1443226
Hubli Junction ,UBL,15.3500306,75.1491598
Murshadpur ,MSDR,18.8095984,75.1574567
Tahsil Bhadra ,TSD,29.1015996,75.1613784
Jeur ,JEUR,18.260227,75.1632937
Dudhwakhara ,DKX,28.4603064,75.1665151
Moga ,MOGA,30.8164603,75.1717093
Trikarpur ,TKQ,12.1417813,75.1720488
Rai Singh Nagar ,RSNR,30.82927,75.1871639
Lohian Khas Junction ,LNK,31.1649999,75.1955758
Sultanpur Lodi ,SQR,31.2153,75.1997
Hadyal ,HYL,28.4911842,75.1997702
Payyanur ,PAY,12.1,75.2
Sangola ,SGLA,17.4333,75.2
Nagar ,NGE,26.4639155,75.2026879
Malsian Shahkht ,MQS,31.1683269,75.2090842
Ghagwal ,GHGL,32.5096273,75.2099821
Daulatabad ,DLB,19.942724,75.213164
Bhanwasa ,BNWS,23.4058816,75.2158171
Puttur ,PUT,12.7667,75.2167
Phulera Junction ,FL,26.8667,75.2333
Rampura Phul ,PUL,30.2819444,75.2430556
Rauli ,RUL,30.865613,75.245145
Kundgol ,KNO,15.2552502,75.2475354
Bohali ,BHLI,17.6070829,75.2522813
Kalhar ,KAH,33.6230419,75.2544689
Payangadi ,PAZ,12.0188487,75.2586951
Dharangaon ,DXG,21.0167,75.2667
Chhina ,CHN,31.8988689,75.2705102
Nawalgarh ,NWH,27.851755,75.2740477
Hira Nagar ,HRNR,32.4896217,75.2741557
Berchha ,BCH,23.2027391,75.2799884
Khachrod ,KUH,23.4255409,75.2843627
Sidmukh ,SDMK,28.8881028,75.2843627
Beas ,BEAS,31.520083,75.291249
Kotli Kalan ,KTKL,30.037557,75.293111
Bheslana ,BILA,27.0594029,75.2939308
Saunshi ,SNH,15.204522,75.3004009
Takli ,TKI,17.6381472,75.3004009
Chakdayala ,CKDL,32.478389,75.3076904
Dhavalas ,DHS,18.135955,75.312064
Ranolishishu ,RNIS,27.5283578,75.3146458
Dokwa ,DKWA,28.5817215,75.3222685
Dhariwal ,DHW,31.9486111,75.3233333
Pandharpur ,PVR,17.6745535,75.3237262
Amalner ,AN,18.9485435,75.3353875
Savanur ,SVNR,14.9724912,75.3355694
Aurangabad ,AWB,19.8761653,75.3433139
Chavalkhede ,CHLK,21.0206961,75.3441329
Valapattanam ,VAPM,11.9261679,75.3499629
Dhilwan ,DIW,31.5169,75.35
Renwal ,RNW,27.1614915,75.3573804
Jalindri ,JNRI,25.2855429,75.3587075
Chhan Arorian ,CHNR,32.4615237,75.3587986
Gudgeri ,GDI,15.1333333,75.3666667
Kannur ,CAN,11.8744775,75.3703662
Dhinda ,DHND,26.8919428,75.3703662
Utran ,URN,20.751927,75.3772881
Asalpur Jobner ,JOB,26.9691156,75.379858
Kapurthala ,KXH,31.38,75.38
Kumsi ,KMSI,14.0622397,75.3820239
Mansa ,MSZ,29.9833,75.3833
Ringas Junction ,RGS,27.3628496,75.3892184
Mundhewadi ,MVE,17.679841,75.3936808
Narwasi ,NRWI,28.7408399,75.3951378
Tahsil Fatehpur ,TSF,29.775761,75.3973234
Haveri ,HVR,14.8,75.4
Jhunjhunun ,JJN,28.1333,75.4
Khatu ,KHTU,27.363933,75.4024228
Modnimb ,MLB,17.9145128,75.4024228
Chikalthan ,CTH,19.8601309,75.4029036
Yalvigi ,YLG,15.0360714,75.4038798
Gurdaspur ,GSP,32.0419424,75.4053367
Nakodar Junction ,NRO,31.3157668,75.4114169
Nagda Junction ,NAD,23.4557842,75.4128034
Kurduvadi ,KWV,18.0951125,75.4199054
Paharsar ,PRSR,28.7309604,75.4283982
Piploda Bagla ,PPG,23.3615865,75.428803
Subrahmanya Roa ,SBHR,12.7678884,75.4300162
Annigeri ,NGR,15.4333,75.4333
Fazalpur ,FZL,31.4120757,75.4461793
Ujjain Junction ,UJN,23.4302975,75.4560025
Bhalwani ,BLNI,17.4079641,75.4636031
Dina Nagar ,DNN,32.1352397,75.4665158
Jagraon ,JGN,30.7915511,75.4694285
Mandi Adampur ,ADR,29.2822533,75.4715692
Byadgi ,BYD,14.6700639,75.4842087
Goriyan ,GIO,27.511447,75.4845322
Balsamand ,BLSD,29.0715883,75.4898156
Thalassery ,TLY,11.7532878,75.4928777
Kartarpur ,KRE,31.4363712,75.49564
Takarkhede ,TKHE,20.9931423,75.49564
Mahidpur Road ,MEP,23.5700603,75.5014437
Suratpura ,SURP,28.6902415,75.5127628
Luni Richha ,LNR,23.6612576,75.5144766
Kathua ,KTHU,32.3775789,75.5218468
Barud ,BRUD,21.7491667,75.5269444
Jhunpa ,JUP,28.7732297,75.5283978
Palsora Makrawa ,PSO,23.2602626,75.5312794
Vikramgarh Alot ,VMA,23.7645437,75.5381328
Mahe ,MAHE,11.699142,75.546663
Barnala ,BNN,30.3819446,75.5467979
Budhlada ,BLZ,29.9266932,75.5541854
Satur ,SRT,25.4807495,75.5582376
Unhel ,UNL,23.3380745,75.5582376
Hombal ,HBL,15.5157821,75.559693
Jalgaon Junction ,JL,21.0182435,75.5629677
Pulgaon Junction ,PLO,21.0182435,75.5629677
Sheo Singh Pura ,SHNX,26.9135032,75.567559
Shimoga ,SME,13.9299299,75.568101
Shimoga Town ,SMET,13.9299299,75.568101
Shendri ,SEI,18.1556607,75.5684254
Devargudda ,DAD,14.6683639,75.5727914
Jalandhar City ,JUC,31.3260152,75.5761829
Angar ,AAG,17.898833,75.5771573
Vadakara ,BDJ,11.599104,75.581131
Chhota Gudha ,COD,27.2852997,75.5829782
Kayamsar ,QMRS,28.0953454,75.5866162
Nurmahal ,NRM,31.0964,75.5967
Madhopur Punjab ,MDPB,32.3652894,75.5972867
Talod ,TOD,23.6833333,75.6
Sujanpur ,SJNP,32.31263,75.6014359
Mirthal ,MRTL,32.1181288,75.6062597
Siwani ,SWNI,28.9084317,75.6120795
Jalandhar Cant ,JRC,31.2849744,75.6149893
Mukerian ,MEX,31.9506,75.6158
Jandiala ,JNL,31.1667,75.6167
Ranibennur ,RNR,14.6167,75.6167
Aslaoda ,ASL,23.2461595,75.6178991
Payyoli ,PYOL,11.5128553,75.6178991
Sansarpur ,SNRR,31.2672703,75.6193539
Ghat Nandur ,GTU,18.5656547,75.626628
Chau Mahla ,CMU,23.9935125,75.6309922
Bhogpur Sirwal ,BPRS,31.55,75.6325
Shamgarh ,SGZ,24.1833,75.6333
Chakki Bank ,CHKB,32.2592731,75.6362655
Tanda Urmar ,TDO,31.6789749,75.6382657
Jalsu ,JAC,27.1188167,75.641175
Rampura Beri ,RMB,28.5208072,75.6417002
Gadag Junction ,GDG,15.4367164,75.6420842
Pathankot ,PTK,32.2643375,75.6421121
Mohol ,MO,17.802867,75.6454727
Bhadli ,BDI,21.0511875,75.6455388
Chirawa ,CRWA,28.2401,75.6456
Hole Alur ,HLAR,15.8249636,75.6469934
Bundi ,BUDI,25.4305144,75.6499025
Unchi Bassi ,UCB,31.8587737,75.6499025
Garot ,GOH,24.3167,75.65
Suwasra ,SVA,24.0697172,75.6528116
Bilga ,BZG,31.0501545,75.6546595
Bolinna Doaba ,BLND,31.342263,75.6564045
Dasuya ,DZA,31.813226,75.6637375
Kandrori ,KNDI,32.1963333,75.6654118
Paldhi ,PLD,20.7563771,75.6717191
Guledagudda Road ,GED,16.0676936,75.6732495
Narkher ,NRKR,17.9018005,75.6746277
Badami ,BDM,15.91494,75.676811
Barsi Town ,BTW,18.2333856,75.6941478
Kanwat ,KAWT,27.5886194,75.6949864
Phillaur Junction ,PHR,31.064728,75.6972572
Bagalkot ,BGK,16.1833,75.7
Bijapur ,BJP,16.83,75.7
Quilandi ,QLD,11.43,75.7
Loharwara ,LHW,27.5566625,75.7051647
Chiheru ,CEU,31.2626388,75.7068017
Bhadravati ,BDVT,13.8329901,75.7080727
Kanginhal ,KGX,15.4482814,75.7190679
Lekoda ,LOD,23.0546879,75.7197039
Hisar ,HSR,29.1491875,75.7216527
Bhaton Ki Gali ,BHG,27.0984699,75.7226116
Khurdpur ,KUPR,31.4255962,75.7236958
Badnapur ,BDU,19.8682398,75.7256331
Mulvad ,MVD,16.5931255,75.7327879
Surajgarh ,SRGH,28.3124,75.7347
Sham Chaurasi ,SCQ,31.4997,75.7494
Ajnod ,AJN,22.9397953,75.7531385
Mhow ,MHOW,22.5524372,75.7565273
Khatipura ,KWP,26.9288136,75.7567311
Asafpur ,AFR,31.9450626,75.7589524
Kanoh ,KANO,29.3838843,75.7589524
Kalyan Junction ,KYN,19.2007848,75.7595997
Bir ,BIR,18.9890893,75.7600785
Bhanwar Tonk ,BHTK,25.9599198,75.7633127
Dahar Ka Balaji ,DKBJ,26.9545155,75.7647661
Phagwara Junction ,PGW,31.2180757,75.7649478
Goraya ,GRY,31.123909,75.765552
Sanganer ,SNGN,26.8215681,75.7749395
Nim Ka Thana ,NMK,27.7393659,75.777846
Kozhikode ,CLT,11.2587531,75.78041
Durgapura ,DPA,26.8452693,75.7832725
Sakleshpur ,SKLR,12.9441511,75.7865653
Jaipur ,JP,26.9124165,75.7872879
Jeypore ,JYP,26.9124165,75.7872879
Satrod ,STD,29.131068,75.7880184
Ladhowal ,LDW,30.9784526,75.7938309
Harihar ,HRR,14.5167,75.8
Sunam ,SFM,30.1333,75.8
Loharu ,LHU,28.426706,75.8040022
Rau ,RAU,22.6363845,75.8106927
Lehra Gaga ,LHA,29.935085,75.812415
Tarikere Junction ,TKE,13.7086667,75.815859
Shivpura ,SVT,25.1527292,75.8170786
Kyataneakeri Rd ,KTK,17.0531416,75.8209831
Ladda ,LDX,30.3155402,75.8214371
Minchnal ,MNL,16.9711978,75.8218911
Nasrala ,NAS,31.4889969,75.8228899
Kila Raipur ,QRP,30.762428,75.8228899
Patal Pani ,PTP,22.493163,75.8243427
Kadalundi ,KN,11.1360492,75.8272482
Bagevadi Road ,BSRX,16.4800631,75.828247
Chajli ,CJL,30.0327778,75.8288889
Bhawani Mandi ,BWM,24.42,75.8297222
Ahmadgarh ,AHH,30.6873,75.8316
Ferok ,FK,11.1842697,75.8334786
Sangrur ,SAG,30.2457963,75.8420716
Ludhiana Junction ,LDH,30.9124904,75.8479485
Parpanangadi ,PGI,11.060506,75.8507818
Jhalawar Road ,JHW,25.1488815,75.8532678
Pirtala ,PRTL,29.5987447,75.8548479
Indore Junction Bg ,INDB,22.7195687,75.8577258
Indore Jn Mg ,INDM,22.7195687,75.8577258
Vallikunnu ,VLI,11.2430041,75.8632961
Chorgi ,CHRG,17.1810184,75.865741
Dakaniya Talav ,DKNT,25.1460474,75.8659226
Dhuri Junction ,DUI,30.3667,75.8667
Tanur ,TA,10.9820313,75.875396
Almatti ,LMT,16.3515456,75.8795378
Jalna ,J,19.8333,75.8833
Savda ,SAV,21.15,75.8833
Bharoli ,BHRL,31.2405727,75.8860726
Malerkotla ,MET,30.5232076,75.8882508
Tohana ,TUN,29.7,75.9
Varangaon ,VNA,21.0173325,75.9007435
Shivnagar ,SHNG,22.5915441,75.9143867
Hoshiarpur ,HSX,31.5322,75.9172
Dhandari Kalan ,DDL,30.8586756,75.9172904
Indi Road ,IDR,17.211532,75.919505
Tirur ,TIR,10.9146271,75.9220929
Davangere ,DVG,14.4663438,75.9238397
Bansthali Niwai ,BNLW,26.3609304,75.9289046
Keshorai Patan ,KPTN,25.3,75.9333
Ramganj Mandi ,RMA,24.65,75.9333333
Choral ,CRL,22.4526011,75.9419693
Bhagwanpura ,BGPR,30.7877926,75.9441467
Lachyan ,LHN,17.1737322,75.9564843
Satnali ,STNL,28.3662876,75.9637413
Yedshi ,YSI,18.3192781,75.9644645
Hansi ,HNS,29.1,75.9667
Nilambur Road ,NIL,11.2700492,75.9700221
Aherwadi ,AHD,17.5101273,75.9739003
Morak ,MKX,24.7265382,75.9739003
Sulerjavalge ,SLGE,17.4603082,75.974626
Birur Junction ,RRB,13.5909451,75.9749888
Tadwal ,TVL,17.3930873,75.9756237
Tirunnavaya ,TUA,10.8656858,75.9843017
Padnur ,PDNR,17.313849,75.9876864
Kashi ,KEI,39.4704,75.989755
Hotgi ,HG,17.5647698,75.9898631
Naranjipur ,NRGR,23.059874,76.0014712
Ajjampur ,AJP,13.7273292,76.005824
Jawali ,JAL,32.1471255,76.0072749
Bawani Khera ,BWK,28.95,76.0167
Kadur ,DRU,13.55741,76.01679
Bodwad ,BDWD,20.901904,76.0174308
Isarda ,ISA,26.1707319,76.0297619
Kuttippuram ,KTU,10.8423085,76.0304873
Raver ,RV,21.25,76.0333
Doraha ,DOA,30.8039183,76.0333885
Bhanapur ,BNP,15.3874478,76.0384656
Usmanabad ,UMD,18.1860659,76.0419409
Barwaha ,BWW,22.2528862,76.042092
Guruvayur ,GUV,10.6,76.05
Bassi ,BAI,26.8382049,76.0536957
Mahpur ,MHO,30.590496,76.0652985
Dewas ,DWX,22.9667,76.0667
Sanawad ,SWD,22.1833,76.0667
Tarana Road ,TAN,23.264546,76.066761
Tuljapur ,TGP,18.010037,76.0710681
Ranyal Jasmiya ,RCJ,23.1616121,76.0724591
Kapren ,KPZ,25.4038,76.0745
Digod ,DXD,25.2172203,76.0798006
Mayakonda ,MYK,14.2833333,76.0833333
Hassan ,HAS,13.0068142,76.0995519
Narnaul ,NNL,28.0657961,76.1014781
Arnetha ,ARE,25.6834982,76.1030007
Dhoki ,DKY,18.3712458,76.1044506
Dharur ,DRR,18.8192247,76.1127631
Amb  Andaura ,AADR,31.6525412,76.115427
Garh Jaipur ,GUG,26.7822451,76.1290961
Bhiwani ,BNW,28.7990445,76.1335112
Bhiwani City ,BNWC,28.7990445,76.1335112
Chikjajur Junction ,JRU,14.1302173,76.1377935
Akalkot Road ,AKOR,17.4506984,76.1382465
Nabha ,NBA,30.3703725,76.1435915
Mitawal ,MTI,21.7165651,76.1493891
Mahendragarh ,MHRG,28.2833,76.15
Maksi ,MKC,23.2667,76.15
Ghaso ,GSO,29.5224814,76.1508385
Nimar Kheri ,NKR,22.110856,76.1511556
Chauth Ka Brwra ,CKB,26.0503409,76.1522879
Faizullapur ,FYZ,30.6325028,76.1537373
Koppal ,KBL,15.3507081,76.1554311
Paradgaon ,PDG,19.6213414,76.1572427
Ghataka Varana ,GKB,25.5064495,76.1603497
Jhalwara ,JLW,24.5973494,76.1609838
Nagansur ,NGS,17.3924501,76.1696791
Dhanauri ,DNRE,29.7764087,76.1754757
Holalkere ,HLK,14.0504576,76.181272
Kotlakheri ,KTKH,25.6649505,76.181272
Lakheri ,LKE,25.6649505,76.181272
Uchana ,UCA,29.4702591,76.181272
Pattambi ,PTB,10.8053893,76.1870681
Punkunnam ,PNQ,10.5364028,76.1986595
Malkapur Road ,MALK,20.8887679,76.2047718
Malkapur ,MKU,20.8810933,76.2073525
Angadippuram ,AAM,10.971846,76.21025
Khanna ,KNN,30.697852,76.2112286
Thrisur ,TCR,10.5276416,76.2144349
Partur ,PTU,19.6,76.2167
Irinjalakuda ,IJK,10.3474241,76.2168508
Haldi Road ,HLDD,22.696687,76.2174553
Karajgi ,KJG,17.2815827,76.2174935
Cherukara ,CQA,10.9282375,76.2218394
Barsola ,BZO,29.3913743,76.2290823
Pir Umrod ,PUO,23.2597646,76.2319793
Burhanpur ,BAU,21.3,76.2333
Pattikkad ,PKQ,11.0225925,76.2334278
Wadakancheri ,WKI,10.6617378,76.2363248
Bamla ,BMLL,28.8055556,76.2452778
Hole Narsipur ,HLN,12.7869166,76.2467352
Ginigera ,GIN,15.3499423,76.2493603
Vailapuzha ,VPZ,10.8399772,76.251687
Arsikere Junction ,ASK,13.3136091,76.2533431
Vaniyambalam ,VNB,11.1856648,76.2638427
Chikhli ,CKHS,20.3490978,76.2652909
Charkhi Dadri ,CKD,28.6,76.2667
Shajapur ,SFY,23.4333,76.2667
Melattur ,MLTR,11.0683809,76.2681871
Pudukad ,PUK,10.4186904,76.2681871
Una Himachal ,UHL,31.468445,76.2707745
Kairla ,KAI,10.8505159,76.2710833
Shoranur Junction ,SRR,10.7591827,76.2722146
Boroti ,BOT,17.3775803,76.2775995
Ernakulam Town ,ERN,9.98,76.28
Ateli ,AEL,28.1056349,76.2800859
Tuvvur ,TUV,11.1131613,76.2858625
Ajanti ,ANI,21.891765,76.2884592
Jind Junction ,JIND,29.3290286,76.2895451
Kalapipal ,KPP,23.4136273,76.2899071
Kushtala ,KTA,25.9698055,76.2928028
Mangalore Junction ,MAJN,15.323639,76.2995793
Antah ,ATH,25.15,76.3
Kanina Khas ,KNNK,28.3302908,76.3087282
Auvaneswsarem ,AVS,9.9763133,76.3096657
Mararikulam ,MAKM,9.6096046,76.3116235
Rawania Dungar ,RWJ,25.8883879,76.3143378
Hosdurga Road ,HSD,13.7046568,76.3181602
Karaila Road Junction ,KRLR,10.011771,76.3227878
G.Ramachandrapu ,GRCP,10.067604,76.323193
Munirabad ,MRB,15.2788602,76.3260992
Dausa ,DO,26.8833,76.3333
Chalakudi ,CKI,10.3080272,76.3336779
Alleppey ,ALLP,9.4980667,76.3388484
Mangliya Gaon ,MGG,22.6417419,76.3456388
Aluva ,AWY,10.1075702,76.345662
Khandwa ,KNW,21.8257334,76.352571
Naya Nangal ,NNGL,31.3866405,76.3550457
Ambalapuzha ,AMPA,9.3772533,76.3577837
Nangal Dam ,NLDM,31.381806,76.364053
Dhaneta ,DAN,31.6683817,76.364452
Sawai Madhopur ,SWM,25.9833333,76.3666667
Mysore Junction ,MYS,12.5505501,76.3677628
Dudhani ,DUD,17.3585392,76.3680696
Kodaganur ,KAG,16.5203641,76.3742194
Mandagere ,MGF,12.7295897,76.3803688
Angamali ,AFK,10.212894,76.380601
Fatehgarh Sahib ,FGSB,30.6456,76.3825
Sirhind Junction ,SIR,30.6237187,76.38272
Iklehra ,IKR,23.15,76.3833
Ottappalam ,OTP,10.7667,76.3833
Mulanturutti ,MNTT,9.8983966,76.383986
Krishanrajanaga ,KRNR,12.44374,76.38578
Patiala ,PTA,30.3397809,76.3868797
Hospet Junction ,HPT,15.2865694,76.3872414
Eranakulam Junction ,ERS,9.8153893,76.3952565
Nimbal ,NBL,17.3997016,76.3984537
Chitradurg ,CTA,14.2333,76.4
Nepanagar ,NPNR,21.4667,76.4
Julana ,JNA,29.1229795,76.4013471
Vaikam Road ,VARD,9.7418449,76.4034624
Bassi Pathanam ,BSPN,30.6861187,76.4042404
Turavur ,TUVR,10.2006676,76.4244916
Settihally ,SET,12.9076234,76.4252148
Kariganuru ,KGW,15.2542812,76.4266612
Kalanaur Kalan ,KLNK,28.8259149,76.4273844
Kali Sindh ,KSH,23.3471591,76.4288308
Pathri ,PRI,19.270082,76.428947
Masit ,MST,28.2903096,76.4375086
Nandura ,NN,20.8333,76.45
Lahli ,LHLL,28.8527069,76.4519704
Harippad ,HAD,9.2815315,76.4534165
Mokholi ,MXL,26.161435,76.4612794
Sird ,SIRD,32.4812956,76.4649847
Bolai ,BLX,23.3788079,76.4736602
Tiptur ,TTR,13.2586,76.4783
Amritapura ,AMC,9.089736,76.485908
Khori ,KORI,28.2012608,76.4859494
Papinayaknahali ,PKL,15.2356721,76.4907968
Morinda ,MRND,30.7919,76.4964
Sivajinagar ,SVJR,16.6607551,76.4967919
Kotikulam ,KQK,9.1642382,76.4996831
Ranthambhore ,RNT,26.0173274,76.5025742
Anandpur Sahib ,ANSB,31.2344015,76.5054652
Jirwan ,JRWN,21.6881749,76.5083562
Baran ,BAZ,25.1,76.52
Kottayam ,KTYM,9.5915668,76.5221531
Rupnagar ,RPAR,30.9659168,76.5230234
Karunagapalli ,KPY,9.0654423,76.5314817
Parli Vaijnath ,PRLI,18.85,76.5333
Omkareshwar Rd ,OM,21.0510597,76.5337149
Manwath Road ,MVO,19.3583817,76.5350044
Malarna ,MLZ,26.2297273,76.5350947
Bagetar ,BF,31.9477415,76.5387076
Mavelikara ,MVLK,9.2505757,76.5400806
Changanaseri ,CGY,9.4458875,76.5409655
Chhanera ,CAER,22.0546222,76.5415978
Surgaon Banjari ,SGBJ,21.9364271,76.5430429
Ausa Road ,OSA,18.3467435,76.5505367
Ballenahalli ,BAHI,12.5748683,76.5517132
Bellenahalli ,BNHL,12.5748683,76.5517132
Ajaraka ,AIA,27.9593499,76.557493
Divine Nagar ,DINR,9.4632184,76.5579459
Ettumanur ,ETM,9.6703602,76.5608746
Khamgaon ,KMN,20.7114686,76.5661622
Nadikode ,NDKD,27.05,76.5667
Bandikui Junction ,BKI,27.03926,76.5667041
Kiratpur Sahib ,KART,31.1849637,76.5690519
Kurali ,KRLI,30.8331,76.5733
Ratanpura ,RTP,31.0293638,76.5733862
Tiruvalla ,TRVL,9.3834522,76.574057
New Morinda ,NMDA,30.76654,76.5746955
Rohtak Junction ,ROK,28.8911221,76.5789844
Usmanpur ,UPR,29.9606647,76.5806097
Piravam Road ,PVRD,9.8728657,76.5829656
Bawal ,BWL,28.0833,76.5833
Latur ,LUR,18.4,76.5833
Cheriyanad ,CYN,9.2757713,76.5863882
Ghanauli ,GANL,31.0236996,76.5863882
Baswa ,BU,27.1419038,76.5892774
Gadiganuru ,GNR,15.2061971,76.5892774
Rajpura Junction ,RPJ,30.4861209,76.5937722
Jogi Magra ,JOM,30.3093984,76.5965
Akodia ,AKD,23.3833,76.6
Chengannur ,CNGR,9.3184833,76.6140167
Rewari ,RE,28.1833,76.6167
Iravipuram ,IRP,8.8596135,76.6196097
Parisal ,PSL,27.6767744,76.6224981
Sasthankotta ,STKT,9.0364612,76.6239423
Barauni Junction ,BJU,26.2217087,76.6240972
Alwar ,AWR,27.5609324,76.6250168
Malakhera ,MKH,27.390648,76.6268306
Pangaon ,PNF,18.6302675,76.6282747
Kilikollur ,KLQ,8.9178033,76.6327286
Nrynpur Tatwar ,NNW,26.3443432,76.6359464
Chandanattop ,CTPE,8.9319435,76.6441591
Khairthal ,KRH,27.8011636,76.6441591
Mayyanad ,MYY,8.8508609,76.649762
Challakere ,CHKE,14.3167,76.65
Harangul ,HGL,18.906145,76.6506567
Jamunia Kalan ,JMKL,21.7483507,76.6542664
Palakkad ,PGT,10.7867303,76.6547932
Palghat Town ,PGTN,10.7867303,76.6547932
Salauna ,SLNA,26.5096743,76.6557102
Pandavapura ,PANP,12.4928616,76.6642853
Kadakola ,KDO,12.1896827,76.6658165
Paravur ,PVU,8.814189,76.6672602
Duroji ,DAJ,15.2393919,76.6679697
Tukaithad ,TTZ,21.430983,76.6687038
Atru ,ATRU,24.8768423,76.6701475
Hunsihadgil ,HHD,17.3429705,76.6701475
Toranagallu ,TNGL,15.1598636,76.675922
Kappil ,KFI,8.7808922,76.6773655
Kundara East ,KFV,8.9601841,76.6788091
Kundara ,KUV,8.9601841,76.6788091
Lalpur Umri ,LRU,26.4301633,76.6805233
Nanjangud Town ,NTW,12.1197,76.6828
Kayankulam Junction ,KYJ,9.1652502,76.684464
Shrirangapatna ,S,12.4215561,76.6931273
Shegaon ,SEG,20.7915727,76.6932438
Udagamandalam ,UAM,11.4064138,76.6932438
Gohana ,GHNA,29.1333,76.7
Karepur ,KRPR,18.5844011,76.7007118
Lovedale ,LOV,11.3818254,76.7019038
Pokharni Nrsnha ,PKNS,19.1167561,76.7065001
Ammasandra ,AMSA,13.268916,76.7148927
Kisoni ,KONY,23.3648444,76.7163359
Shujalpur ,SJP,23.4,76.7167
Shujaatpur ,SJT,23.4,76.7167
Varkala ,VAK,8.7333,76.7167
Ezhukone ,EKN,8.9832486,76.7192221
Salpura ,SYL,24.72115,76.7192221
Rajgarh ,RHG,24.0078819,76.7278803
Ketti ,KXT,11.376138,76.7293233
Sawalgi ,SVG,17.3483995,76.7293233
Harsud ,HRD,22.1,76.7333
Gangapur City ,GGC,26.490633,76.734237
Ismaila Haryana ,ISM,28.7928756,76.7379808
Molakalmuru ,MOMU,14.7165215,76.7466378
Gangakher ,GNH,18.9663544,76.7480805
Balganur ,BLR,15.956087,76.7531301
Janwal ,JOA,18.5497442,76.7531301
Akathumuri ,AMY,8.7030243,76.7581794
Kudatini ,KDN,15.1963592,76.7596221
Aravankadu ,AVK,11.361829,76.766509
Sampla ,SPZ,28.7775769,76.7711626
Kottarakara ,KKZ,9.0009187,76.7720205
Sunak ,SUC,30.8022664,76.772605
Parbhani Junction ,PBN,19.2573368,76.7741377
Ambala City ,UBC,30.3781788,76.7766974
Chandigarh ,CDG,30.7333148,76.7794179
Chakrod ,CKOD,23.3394746,76.7823414
Rani ,RANI,9.3865694,76.7855551
Wellington ,WEL,11.356635,76.786022
Ambala Cant Junction ,UMB,30.3979048,76.7888121
Nayagaon ,NYO,30.7761322,76.7943229
Coonoor ,ONR,11.3530022,76.7959095
Lalru ,LLU,30.4866667,76.8005556
Wadwal Nagnath ,WDLN,18.5330573,76.8050565
Chhoti Odai ,COO,26.5587943,76.8055072
Dhulghat ,DGT,21.516525,76.8057776
Badli ,BHD,28.5719371,76.8099556
Perunguzhi ,PGZ,8.631748,76.81348
Dappar ,DHPR,30.5209905,76.8140693
New Jalpaiguri ,NJP,30.3724984,76.8245233
Nimbhora ,NB,20.9488613,76.8266861
Jamga ,JMG,18.0644538,76.8288489
Gulbarga ,GR,17.329731,76.8342957
Murukkampuzha ,MQU,8.6102408,76.8346161
Marthipalayam ,MPLM,10.9327422,76.8414642
Bevinahalu ,BNL,13.8967449,76.8425455
Latur Road ,LTRR,18.5089404,76.844708
Nagarur ,NRR,8.7357681,76.8475912
Khirkiya ,KKN,22.1667,76.85
Akola Junction ,AK,20.6702901,76.8501452
Chhabra Gugor ,CAG,24.6800247,76.8511051
Kaniyapuram ,KXP,8.5839678,76.8519159
Kurukshetra Junction ,KKDE,29.9694205,76.8520961
Rayadrug ,RDG,14.696734,76.8546688
Kadiyan ,KYM,32.0202348,76.8598442
Pilioda ,PDZ,26.606065,76.8640785
Shahbad Marknda ,SHDM,30.1672152,76.8683714
Chakur ,CKX,18.5212524,76.8749787
Kazhakuttam ,KZK,8.568315,76.875671
Dhulkot ,DKT,30.3541653,76.8807437
Chandi Mandir ,CNDM,30.7285106,76.8922729
Kochuveli ,KCVL,8.5142324,76.893714
Mandya ,MYA,12.5242,76.8958
Biyavra Rajgarh ,BRRG,23.9364251,76.9074934
Nageshwadi Halt ,NGHW,18.4606254,76.9163024
Bahadurgarh ,BGZ,28.6833,76.9167
Nilokheri ,NLKR,29.8333,76.9167
Khandip ,KNDP,26.6387893,76.9210913
Bellary Cant ,BYC,15.1393932,76.9214428
Shri Mahabirji ,SMBJ,26.9296295,76.922532
Kalka ,KLK,30.83,76.93
Taraori ,TRR,29.80486,76.93279
Pedanyknpalayam ,PDKM,11.15,76.9333
Punalur ,PUU,9,76.9333
Garhi Harsaru ,GHH,28.45,76.9333333
Metupalaiyam ,MTP,11.2890873,76.9409686
Adgaon Buzurg ,ABZ,21.1283443,76.9431507
Mirkhal ,MQL,17.9960434,76.9434208
Chamarajanagar ,CMNR,11.9261471,76.9437312
Gubbi ,GBB,13.3106,76.9444
Coimbatore Nrth ,CBF,11.060285,76.945778
Trivandrum Cntl ,TVC,8.4874,76.952
Trivandrum Pett ,TVP,8.4874,76.952
Taksal ,TSL,30.8473753,76.9578248
Ambika Rohina ,AMBR,18.4343317,76.9597489
Kheril ,KL,27.1876653,76.9628658
Ram Nagar J K ,RMJK,11.0123501,76.9628658
Panipat Junction ,PNP,29.3891542,76.963766
Mandi Dip ,MDDP,29.5382859,76.9666225
Coimbatore Junction ,CBE,10.9962642,76.9668264
Gharaunda ,GRA,29.5375,76.9717
Ashokapuram ,AP,11.0833878,76.9729472
Kollam Junction ,QLN,9.5538942,76.9730419
Pataudi Road ,PTRD,28.4385241,76.9758581
Haddinagundu ,HDD,15.1527796,76.9788623
Hanakere ,HNK,12.5647137,76.9808677
Nalwar ,NW,16.9333333,76.9833333
Podanur Junction ,PTJ,10.964917,76.9896876
Karnal ,KUN,29.6856929,76.9904825
Ramanathapuram ,RMD,10.9974549,76.9915961
Kanhegaon ,KNGN,19.2007445,76.9927474
Haranya Kheri ,HKH,30.5648209,76.9981469
Shelgoan H ,SLGH,18.5014028,77.0075055
Ugwe ,UGWE,20.8059572,77.0091605
Kumtha Khurd ,KTKR,18.4207845,77.0096651
Baktal ,BKTL,23.2504723,77.0125445
Patsul ,PTZ,20.9889299,77.0132643
Samalkha ,SMK,29.2400697,77.0150925
Ganaur ,GNU,29.12741,77.01597
Halakatta ,HLKT,16.9951895,77.0161436
Dharmpur Hmchl ,DMP,30.8994362,77.0190228
Kalkund ,KKD,22.2009212,77.024781
Gurgaon ,GGN,28.4594965,77.0266383
Hindaun City ,HAN,26.744192,77.02766
Pilamedu ,PLMD,11.0331511,77.02766
Barara ,RAA,30.2120078,77.0401544
Balabnramapuram ,BRAM,8.4295253,77.0478112
Maddur ,MAD,12.59317,77.04947
Kumbhraj ,KHRJ,24.3667,77.05
Hagari ,HGI,15.151749,77.052108
Bijwasan ,BWSN,28.5289355,77.0550072
Kakarghatti ,KKHT,30.8884975,77.0571659
Kumarhatti ,KMTI,30.8884975,77.0571659
Akot ,AKOT,21.0964,77.0586
Rathdhana ,RDDE,28.9039139,77.0588749
Nangloi ,NNO,28.6841206,77.0632942
Irugur ,IGU,11.0167,77.0667
Barog ,BOF,31.0740661,77.0702666
Chittapur ,CT,17.1167,77.0833
Sehore ,SEH,23.2,77.0833
Rajanagar ,RJA,28.5804534,77.083787
Palam ,PM,28.5893313,77.0866646
Neyyattinkara ,NYY,8.401648,77.0871199
Mangolpuri ,MGLP,28.6883457,77.0881034
Jabli ,JBL,30.9188652,77.089546
Sonipat ,SNP,28.9285745,77.0914935
Chaukhandi ,CHH,28.6472126,77.0924196
Holambi Kalan ,HUK,28.8091927,77.0938583
Harda ,HD,22.3442229,77.0967357
Narela ,NUR,28.8466863,77.0967357
Tumkur ,TK,13.34,77.1
Piplia ,PIP,22.111165,77.1003323
Harinagar ,HIR,28.7040592,77.1024902
Kathleeghat ,KEJ,31.0217444,77.103659
Kandaghat ,KDZ,30.9702143,77.1053673
Solan ,SOL,30.91,77.11
Udgir ,UDGR,18.3942882,77.1126009
Solan Brewery ,SBY,30.9294133,77.1144929
Loha ,LOHA,18.9473865,77.1154368
Khera Kalan ,KHKN,28.769616,77.115803
Shoghi ,SGS,31.0421269,77.1197521
Dhanuvachapuram ,DAVM,8.3839143,77.1283821
Dundi ,DDCE,32.3530171,77.1298204
Jutogh ,JTO,31.1010208,77.1300734
Salogra ,SLR,30.9348398,77.1311687
Shakurbasti ,SSB,28.6798758,77.1321575
Chudawa ,CRU,19.1702521,77.1326969
Yadgir ,YG,16.7667,77.1333
Taradevi ,TVI,31.0689357,77.1341351
Samsi ,SM,31.8933201,77.1384496
Naraina ,NRI,28.6245503,77.1398878
Fateh Singhpura ,FSP,26.8184864,77.1408489
Hingoli Deccan ,HNL,19.7167,77.15
Washim ,WHM,20.1,77.15
Parashshala ,PASA,8.3438981,77.1519902
Delhi Cantt ,DEC,28.5961279,77.1587375
Kolnur ,KOLR,18.5887273,77.1596606
Basmat ,BMF,19.3167,77.1667
Naya Azadpur ,NDAZ,28.714134,77.167224
Charkhera ,CRK,22.3664404,77.1729605
Simla ,SML,31.1046052,77.1734242
Kotana ,KTOA,29.1155141,77.1762083
Ruthiyai ,RTA,24.5342891,77.180149
Kamalnagar ,KMNR,18.2353831,77.1815867
Somanur ,SNO,11.0870641,77.1858995
A N Dev Nagar ,ACND,28.654788,77.188987
Delhi Kishangnj ,DKZ,28.6642483,77.2008136
Limbgaon ,LBG,19.1788269,77.2024306
Channapatna ,CPT,12.6521959,77.2031493
Nadbai ,NBI,27.2144024,77.2031493
Subzi Mandi ,SZM,28.6694461,77.2045867
Lakshmibai Ngr ,LMNR,28.579606,77.204835
Delhi Safdarjng ,DSJ,28.583334,77.205833
Kyatsandra ,KIAT,13.2985929,77.2060241
Sadar Bazar ,DSB,28.6598256,77.2088987
Indara Junction ,IAA,28.6339219,77.2168185
Kupgal ,KGL,15.7254217,77.219678
Bhalki ,BHLK,18.0534462,77.2232709
Adrsh Ngr Delhi ,ANDI,28.635308,77.22496
Delhi ,DLI,28.635308,77.22496
New Delhi ,NDLS,28.635308,77.22496
Shivaji Bridge ,CSB,28.633662,77.226093
Nihalgarh ,NHH,25.0222348,77.2261452
Timarni ,TBN,22.3692296,77.2261452
Tilak Bridge ,TKJ,28.628016,77.237434
W R S Colony Ph ,WRC,28.5343013,77.2383599
H Nizamuddin ,NZM,28.5903666,77.2420157
Lajpat Nagar ,LPNR,28.5656179,77.2433891
Jugpura ,JRG,28.5818036,77.2476997
Sengottai ,SCT,8.9751131,77.2491365
Palliyadi ,PYD,8.268622,77.2505733
Bakanian Bhaunr ,BQE,23.2642004,77.2572219
Baraut ,BTU,29.0999336,77.2606305
Bellary Junction ,BAY,14.9178764,77.2646453
Mahugarha ,MUGA,24.6175317,77.2663771
Dayalpur ,DLPR,28.71844,77.26965
Loni ,LONI,28.7690286,77.2721234
Delhi Shahdara ,DSA,28.686192,77.2749964
Kutralam ,KTM,8.9339131,77.2780402
Cumbum ,CBM,9.7344265,77.2807423
Adoni ,AD,15.6333,77.2833
Sedam ,SEM,17.181288,77.285353
Delhi S Rohilla ,DEE,28.685537,77.2909896
Okhla ,OKA,28.5673842,77.2922332
Bayana Junction ,BXN,26.9161334,77.2969011
Tuglakabad ,TKD,28.502541,77.2993
Jagadhri ,JUD,30.17,77.3
Jagadhri Wshop ,JUDW,30.17,77.3
Ramanagaram ,RMGM,12.7167,77.3
Matmari ,MTU,16.0456279,77.3010591
Bantanahal ,BLL,15.1907794,77.303723
Anand Vihar ,ANVR,28.6519205,77.3065952
Tenkasi Junction ,TSI,8.9641275,77.3074928
Eraniel ,ERL,8.2061667,77.3166294
Shamli ,SMQL,29.45,77.3167
Faridabad ,FDB,28.4089123,77.3177894
Viveka Vihar ,VVB,28.673406,77.318207
Asaoti ,AST,28.2497734,77.3195196
Ballabgarh ,BVH,28.337824,77.3238274
Sondad ,SNV,27.9178766,77.3238274
Deeg ,DEEG,27.4723994,77.3249713
Bairagarh ,BIH,23.2874036,77.3266991
Nanded ,NED,19.15,77.3333
Palwal ,PWL,28.15,77.3333
Tiruppur ,TUP,11.1085242,77.3410656
Marpalli ,MRF,17.5254326,77.3482352
Sahibabad ,SBB,28.6723587,77.3491306
Kadaynallur ,KDNL,9.0833,77.35
Kurgunta ,KQT,17.1860857,77.3511063
Kodaikanal Road ,KQN,10.2250192,77.3550376
Badshahpur ,BSE,28.4319419,77.3625903
Bandh Bareta ,BR,26.9104848,77.3643172
Hodal ,HDL,27.9,77.3667
Murtajapur ,MZR,20.7296406,77.3678934
Virani Alur ,VRLR,8.187491,77.368716
Narayanpet Road ,NRPD,16.6760428,77.3694771
Raichur ,RC,16.2,77.37
Kondapuram ,KDP,14.2904405,77.3726379
Guntakal Junction ,GTL,15.1491861,77.3767948
Landaura ,LDR,29.7149541,77.3798142
Pavurchutram ,PCM,8.9201967,77.3812494
Bareta ,BRZ,26.9743928,77.3848373
Bidadi ,BID,12.7984219,77.3872174
Mallappa Gate ,MLGT,15.2254857,77.3877972
Pathrad ,PARD,19.1753525,77.3927304
Timmanacherla ,TIM,15.1630991,77.3943448
Mulacalacheruvu ,MCU,14.1319947,77.3956004
Bhopal  Junction ,BPL,23.2672079,77.4133574
Maddikera ,MKR,15.2530322,77.4142541
Kanakpura ,KKU,12.55,77.4167
Hejjala ,HJL,12.8557192,77.4199931
Nawandgi ,NAW,17.2169065,77.4257319
Manthralayam Road ,MALM,15.9435913,77.4280679
Nager Coil Town ,NJT,8.17,77.43
Barlai ,BLAX,22.4292956,77.4300357
Mugat ,MGC,19.1509787,77.430753
Nagercoil Junction ,NCJ,8.1839531,77.4315442
Kosi Kalan ,KSV,27.7873022,77.4371184
Salaia ,SYA,23.1693244,77.4400774
Uttukuli ,UKL,11.1697857,77.4514269
Ghaziabad ,GZB,28.6691565,77.4537578
N Ghaziabad ,GZN,28.6691565,77.4537578
Guldhar ,GUH,28.7038015,77.4555283
Ambasamudram ,ASD,8.7,77.4667
Goverdhan ,GDO,27.5,77.4667
Misrod ,MSO,23.1554206,77.467329
Lal Kuan ,LKU,28.6331684,77.4730653
Sirajnagar  H ,SRJN,24.1970284,77.4730653
Byadarahalli ,BDRL,12.9911854,77.4773674
Banapura ,BPF,22.4729995,77.4831032
Kengeri ,KGI,12.9,77.4833
Kathghar ,KGF,26.3014249,77.4845372
Bharatpur Junction ,BTE,27.2366542,77.4883011
Kodi ,KODI,10.2381136,77.4891822
Hindupur ,HUP,13.8289,77.4933
Mudkhed ,MUE,19.144722,77.4988753
Muradnagar ,MUD,28.7833,77.5
Bansi Paharpur ,BIQ,26.9344513,77.5038933
Mantatti ,MVH,17.2584992,77.5103446
Gauribidanur ,GBD,13.6111591,77.5169572
Bidar ,BIDR,17.92,77.519722
Palani ,PLNI,10.4489188,77.5209392
Dasna ,DS,28.6807496,77.5218127
Nayandahalli ,NYH,12.9425682,77.5232461
Krishna Ch Pura ,KCV,12.9969785,77.5367633
Kanyakumari ,CAPE,8.0883064,77.5384507
Dodballapur ,DBU,13.2927263,77.5389069
Amoni ,AONI,23.3685407,77.5425957
Tuggali ,TGL,15.31422,77.5440288
Aralvaymozhi ,AAY,8.258134,77.545165
Sivungaon ,SVN,19.1100964,77.5476117
Wanegaon ,WNG,19.6990494,77.5490448
Sankarankovil ,SNKL,9.1667,77.55
Saharanpur ,SRE,29.9667,77.55
Yesvantpur Junction ,YPR,13.0232118,77.5513735
Srinivasa Nagar ,SHAN,12.9356162,77.554777
Dadri ,DER,28.5461902,77.55621
Madhi ,MID,29.0200336,77.5569265
Badarwas ,BDWS,24.976938,77.5644966
Charanmahadevi ,SMD,8.6747285,77.5658381
N. Panakudi ,NPK,8.3149227,77.5676735
Malleswaram ,MWM,13.0080276,77.5706036
Edduladoddi ,EDD,15.3496426,77.5734048
Naganahalli ,NHY,13.1308856,77.5741212
Haridwar Junction ,HW,30.4371994,77.57604
Modinagar ,MDNR,28.8351946,77.5791358
Rupbas ,RBS,27.0000522,77.5820012
Kalluru ,KLU,14.9210295,77.5834339
Obaidulla Ganj ,ODG,22.9949259,77.5874632
Tandur ,TDU,17.2575756,77.5874633
Anantapur ,ATP,14.6707094,77.5907443
Yelhanka Junction ,YNK,13.1021823,77.5928353
Bangalore Cant ,BNC,12.9715987,77.5945627
Bangalore East ,BNCE,12.9715987,77.5945627
Bangalore Cy Junction ,SBC,12.9715987,77.5945627
Chatrappatti ,CHPT,9.415278,77.595041
Penukonda ,PKD,14.0844312,77.5973233
Hebbal ,HEB,13.0324154,77.5991921
Bhavani Nagar ,BVNR,12.9323079,77.6034894
Ashok Nagar ,ASKN,12.9705147,77.6049218
Valliyur ,VLY,8.3885894,77.6049218
Zahirabad ,ZB,17.67551,77.610563
Kolaras ,KLRS,25.2242588,77.6106512
Aulenda ,AED,27.0307404,77.6178125
Nagarwara ,NWA,13.0350041,77.6235413
Pendekallu ,PDL,15.3762173,77.6242574
Gooty ,GY,15.1229477,77.6325593
Srivilliputtur ,SVPR,9.5121365,77.6340859
Baliakheri ,BAE,29.9257052,77.6375039
Shivalingapuram ,SLPM,9.3447956,77.6400098
Anugraha N Road ,AUBR,13.0173945,77.642194
Nanguneri ,NNN,8.4961056,77.6464534
Banaswadi ,BAND,13.0108013,77.6493171
Pilkhua ,PKW,28.7167,77.65
Shivpuri ,SVPI,25.4333,77.65
Gokarna Road ,GOK,12.993574,77.6601475
Fatehpur Sikri ,FTS,27.0945291,77.6679292
Bhokar ,BOKR,19.2209586,77.6701282
Budni ,BNI,22.7764943,77.681945
Meerut Cant ,MUT,28.993758,77.6822442
Deoband ,DBD,29.7,77.6833
Mathura Cant ,MRT,27.475654,77.6936948
Linganenidoddi ,LMD,15.3939233,77.6965573
Malkhedi ,MAKR,24.5602584,77.6965573
Tirunelveli ,TEN,8.733,77.7
Daurala ,DRLA,29.1130045,77.702282
Katora ,KTO,24.9667938,77.7051443
Meerut City ,MTC,28.9844618,77.7064137
Karamelaram ,CRLM,12.9061527,77.7065754
Mulanur ,MAR,10.7929874,77.7080064
Muzaffarnagar ,MOZ,29.4726817,77.7085091
Dhondi ,DNDI,21.5722208,77.7165925
Kosgi ,KO,16.9877611,77.7169224
Dharmavaram Junction ,DMM,14.4247555,77.7176658
Sakhoti Tanda ,SKF,29.1928743,77.718594
Badhal ,BDHL,31.1105258,77.7201699
Baiyyappanahali ,BYPL,13.0714661,77.7201699
Talaiyuthu ,TAY,8.7939993,77.7280396
New Amravat ,NAVI,20.853633,77.7294705
Khatauli ,KAT,29.2758596,77.7309012
Hoshangabad ,HBD,22.744108,77.736967
Sanchi ,SCI,23.4873393,77.7418238
Karkheli ,KEK,18.9583259,77.7437775
Chandur Bazar ,CNDB,21.2417,77.7456
Powerkheda ,PRKD,22.6736011,77.7478904
Anavardikhanpet ,AVN,12.6611744,77.7480692
Khatgaon ,KHTG,18.4844539,77.7509303
Hasanpur Road ,HPO,27.8342864,77.7512917
Achhnera Junction ,AH,27.1818921,77.7579039
Whitefield ,WFD,12.996275,77.761413
Amravati ,AMI,20.9258333,77.7647222
Dhandhera ,DNRA,29.4505124,77.7652346
Yeliyur ,Y,13.2605387,77.7659498
Chodiala ,CDL,29.908345,77.7666649
Itarsi Junction ,ET,22.6082196,77.7670225
Bareth ,BET,25.392508,77.7738163
Hapur ,HPU,28.7305798,77.7758825
Timtala ,TMT,20.7998952,77.7766767
Malliyala ,MYL,15.3978911,77.7775705
Hyderabad Decan ,HYB,18.0532613,77.7776361
Chola ,CHL,28.3349663,77.7798945
Kiraoli ,KLB,27.1367245,77.7852575
Raya ,RAYA,27.552761,77.78695
Tiruttangal ,TTL,9.4758333,77.7925
Iqbalpur ,IQB,29.873224,77.7945526
Gulaothi ,GLH,28.5912293,77.7966975
Gadwal ,GWD,16.2333,77.8
Metur Dam ,MTDM,11.8,77.8
Jamdha ,JMD,22.4155313,77.8009872
Mecheri Road ,MCRD,12.002656,77.8121066
Rangapuram ,RGM,15.2631406,77.8145701
Vidisha ,BHS,23.5333,77.8167
Hosur ,HSRA,12.7167,77.8167
Sivakasi ,SVKS,9.45,77.8167
Rayalcheruvu ,RLO,15.055672,77.8167146
Khurja Junction ,KRJ,28.2066639,77.8190378
Kala Akhar ,KQE,22.3773693,77.8195739
Seydunganallur ,SDNR,8.6636416,77.8295809
Nidigallu ,NDZ,14.5433182,77.8310104
Devangonthi ,DKN,12.9854589,77.8314571
Babugarh ,BBO,28.7238037,77.8495921
Bulandshahr ,BSC,28.406963,77.8498292
Dharmabad ,DAB,18.9,77.85
Khurja City ,KJY,28.25,77.85
Hathras Junction ,HRS,27.5716958,77.8639686
Mathura Junction ,MTJ,27.5716958,77.8639686
Bolsa ,BLSA,19.0737473,77.864598
Dhodra Mohar ,DOH,22.2752817,77.8653126
Kovilpatti ,CVP,9.1667,77.8667
Kadambur ,KDU,8.9833,77.8667
Godamgura ,GDQ,17.290142,77.8667271
Sankaridrug ,SGE,11.480118,77.872008
Dhone ,DHNE,15.4002707,77.8720108
Sadashivapet Road ,SSPD,17.4835086,77.8728265
Unjalur ,URL,11.1277663,77.8774587
Sriramnagar ,SRNR,16.3,77.88
Kodumudi ,KMD,11.0833,77.8833
Roorkee ,RK,29.8542626,77.8880002
Bankhedi ,BKH,23.3205197,77.8881747
Dhaulpur ,DHO,26.7051828,77.8881747
Betul ,BZU,21.9153,77.8961
Ambaturai ,ABI,10.2621777,77.899604
Vikarabad Junction ,VKB,17.3423796,77.9051465
Gulabhganj ,GLG,23.680989,77.9096036
Garhmuktesar ,GMS,28.798719,77.910072
Srivaikuntam ,SVV,8.628979,77.910804
Govindpuri ,GOY,28.9187116,77.9188882
Pathauli ,PTLI,27.1697252,77.9310283
Ganj Basoda ,BAQ,23.8512534,77.9338846
Mursan ,MSN,27.5678273,77.9353127
Malur ,MLO,13.00241,77.94057
Agasod ,AGD,23.9314195,77.948165
Laksar Junction ,LRJ,29.6820785,77.9521292
Basar ,BSX,18.8801751,77.9538767
Idgah Agra Junction ,IDH,27.1674592,77.9585474
Wanparti Road ,WPR,16.3748349,77.9589392
Sholavandan ,SDN,10.0211443,77.9610158
Chitgidda ,CTF,17.4105942,77.9617297
Todarpur ,TDP,28.781033,77.9628005
Hirnoda ,HDA,23.7278295,77.965299
Pipraigaon ,PIA,24.5061682,77.965299
Kalligudi ,KGD,9.6976597,77.9721722
Dausni ,DSNI,29.7739769,77.9845715
Mahbubnagar ,MBNR,16.741699,77.985901
Simbhooli ,SMBL,28.762013,77.9867127
Tirumangalam ,TMQ,9.8232884,77.9881401
Hathras Road ,HTJ,27.6520299,77.989721
Titwa ,TTW,20.6687691,77.9938497
Bagra Tawa ,BGTA,22.6311213,77.9941173
Raja Ki Mandi ,RKM,27.1922494,77.9988452
Ghoradongri ,GDYA,22.1240168,77.9995589
Agra City ,AGA,27.1766701,78.0080745
Yamuna Bdg Agra ,JAB,27.1766701,78.0080745
Mohitnagar ,MOP,30.3262345,78.0095493
Saharsrakund ,SHSK,19.405125,78.0102628
Agra Cantt ,AGC,27.1566205,78.0138306
Hemagiri ,HGR,18.3146468,78.0138306
Navipet ,NVT,18.7716744,78.0152577
Pugalur ,PGR,11.0833333,78.0166667
Tadipatri ,TU,14.9167,78.0167
Agra Fort ,AF,27.1795328,78.021112
Singarpur ,SNPR,27.8311412,78.0316676
Gullaguda ,GGD,17.4166795,78.0320243
Dehradun ,DDN,30.3164945,78.0321918
Kurnool Town ,KRNT,15.8281257,78.0372792
Aithal ,ATMO,29.8138046,78.0380882
Kurumbur ,KZB,8.5907115,78.0395149
Harrawala ,HRW,30.3223577,78.040585
Omalur ,OML,11.7436657,78.0475878
Hathras City ,HTC,27.6,78.05
Basai ,BZY,27.1574079,78.0566344
Guramkhedi ,GMD,22.684456,78.0609138
Akkaraippatti ,API,11.4708522,78.061627
Tiruparankndrm ,TDN,9.8838036,78.0708985
Palakkodu ,PCV,12.2985516,78.0737511
Aligarh Junction ,ALJN,27.889327,78.0741077
Jhingura ,JHG,27.5128648,78.0758905
Rmkrshnaprm Gte ,RKO,10.9638965,78.0770774
Kishanpur ,KSP,30.3697385,78.0808823
Bela Tal ,BTX,27.8822164,78.0813791
Karur ,KRR,10.95,78.0833
Tyakal ,TCL,12.983333,78.083333
Mandi Bamora ,MABA,24.0597611,78.0908651
Milavittan ,MVN,8.8192782,78.0908651
Arumuganeri ,ANY,8.5681265,78.0937171
Nizamabad ,NZB,18.6725047,78.0940867
Tapri ,TPZ,31.5173528,78.0990646
Chandur ,CND,17.8736,78.0994
Mungaoli ,MNV,24.4167,78.1
Aruppukkottai ,APK,9.515625,78.100015
Dindigul Junction ,DG,10.6588287,78.1042367
Banmor ,BAO,26.3426528,78.1043065
Jwalapur ,JWP,29.9270591,78.1079763
Balawali ,BLW,29.6270537,78.110115
Arni Road ,ARV,20.3789661,78.1111844
Madurai Junction ,MDU,9.91771,78.11163
Salem Junction ,SA,11.670043,78.113286
Doiwala ,DWO,30.1833,78.1167
Kansrao ,QSR,30.0906694,78.1222336
Sabarmati Junction ,SBI,11.6715066,78.1236456
Kayalpattinam ,KZY,8.5683153,78.1238356
Tiruchendur ,TCN,8.4963081,78.1250848
Amla Junction ,AMLA,21.9201864,78.1254412
Shankarpalli ,SKP,17.4564565,78.130787
Dharmapuri ,DPJ,12.1016465,78.1346296
Tuticorin ,TN,8.7641661,78.1348361
Palaiyam ,PALM,10.7253134,78.1350635
Mandawar M Road ,MURD,29.3874897,78.1357902
Bijnor ,BJO,29.3724422,78.1358472
Chandari ,CNBI,24.7128343,78.1364889
Danishpet ,DSPT,11.8584507,78.1372016
Jadcherla ,JCL,16.7625592,78.1393397
Dhamalgaon ,DMGN,20.7860882,78.1407651
Dhamangaon ,DMN,20.7860882,78.1407651
Mohanur ,MONR,11.0598753,78.1421905
Tuti Melur ,TME,8.7982933,78.1492838
Betamcherla ,BMH,15.4562614,78.1507423
Kamasamudram ,KSM,14.5437874,78.1585809
Kadiri ,KRY,14.1130272,78.1605586
Namakkal ,NMKL,11.2194391,78.1677236
Erode Junction ,ED,11.4531876,78.1686979
Kankather ,KHE,28.7999362,78.1706939
Lingti ,LNT,32.1153354,78.1760374
Bangarapet ,BWT,12.9973584,78.1763937
Shyampuri ,SMPA,28.3131542,78.1778185
Bamhrauli ,BMU,26.4716773,78.1820931
Gwalior ,GWL,26.2182871,78.1828308
Motichur ,MOTC,29.9855856,78.1877922
Rasipuram ,RASP,11.4574154,78.1934911
Sohagpur ,SGP,22.7017104,78.1934911
Bodhadi Bujrug ,BHBK,19.4963008,78.1951829
Bina Junction ,BINA,24.1763374,78.1963404
Etmadpur ,ETUE,27.2333127,78.1991896
Kinwat ,KNVT,19.6333,78.2
Kiratgarh ,KRTH,29.5166667,78.2
G Pochampalli ,GDPL,12.5309779,78.2034633
Shadnagar ,SHNR,17.0712297,78.2048878
Raiwala ,RWL,30.0254474,78.219132
Garhara ,GHX,28.3728723,78.2269655
Tundla Junction ,TDL,27.2078039,78.2335523
Machavaram ,MCVM,18.0180837,78.2404947
Gajraula Junction ,GJL,28.8351796,78.2447667
Bisanattam ,BSM,12.8425262,78.2500174
Virbhadra ,VRH,30.0753887,78.2518863
Mandi Dhanaura ,MNDR,28.9527966,78.261408
Karonda ,KOA,24.330222,78.265077
Anupshahr ,AUS,28.3540864,78.2675478
Multai ,MTY,21.7796532,78.2675478
Rishikesh ,RKSH,30.0869281,78.2676116
Hbl Nagar ,HBLN,17.1337956,78.2737765
Gudupulli ,GDP,12.8037089,78.2749328
Bommidi ,BQI,11.950748,78.2817834
Haldaur ,HLDR,29.2930115,78.2832069
Pipalsana ,PLS,29.1304586,78.2995753
Mahadanapuram ,MMH,10.9507587,78.3002869
Buddireddippati ,BDY,12.0478057,78.3038449
Nonera ,NNE,26.4387081,78.3102489
Jakhalaun ,JLN,24.5499524,78.3145181
Dhaura ,DUA,24.4464017,78.3187871
Krishnarajapurm ,KJM,10.9933079,78.3230559
Lingampalli ,LPI,17.48,78.33
Khurai ,KYE,24.0434676,78.3303543
Dabra ,DBA,25.8907463,78.3324512
Kuppam ,KPN,12.7470314,78.3330157
Kamareddi ,KMC,18.3239953,78.3343051
Najibabad Junction ,NBD,29.6032639,78.3347942
Barsali ,BYS,30.7402577,78.348665
Pipariya ,PPI,22.7545878,78.3529326
Rajghat Narora ,RG,28.2362336,78.3541811
Jigna ,JIA,25.6386042,78.3557775
Talmadla ,TMD,18.239475,78.357158
Jalesar Road ,JLS,27.2993716,78.3574533
Kafurpur ,KFPR,28.8696734,78.3600448
Hafizpeta ,HFZ,17.485091,78.3671565
Keutguda ,KTGA,17.4655295,78.3763881
Sikandra Rao ,SKA,27.6864088,78.378274
Pachwan ,PNWN,27.2239306,78.3799564
Bundki ,BEK,29.553565,78.3828006
Morappur ,MAP,12.1280578,78.3913328
Muddanuru ,MOO,14.6896777,78.3927547
Umdanagar ,UR,17.263289,78.392857
Firozabad ,FZD,27.1591006,78.3957574
Akanapet ,AKE,18.1018082,78.397998
Bijauli ,BJI,27.9834271,78.3998642
Sumreri ,SMRR,24.0137149,78.4041297
Muktapur ,MKPR,21.3777508,78.4076841
Naraikkinar ,NRK,11.4922554,78.4080395
Budvel ,BDVL,17.3391228,78.4098167
Mirzapali ,MZL,18.0177352,78.4147925
Lalitpur ,LAR,24.6833,78.4167
Babrala ,BBA,28.2835343,78.4183466
Kulitalai ,KLT,10.937347,78.4211897
Kulitthurai ,KZT,10.937347,78.4211897
Manaparai ,MPA,10.6240913,78.4240328
Ettapur Road ,ETP,17.3733067,78.4292832
Gohad Road ,GOA,26.4696553,78.4304294
Talbahat ,TBT,25.04426,78.431061
Nagina ,NGG,29.4426409,78.4326638
Dayanand Nagar ,DYE,17.5395208,78.4393107
Habibganj ,HBJ,27.9169655,78.4418001
Sanat Nagar ,SNF,17.4575698,78.443932
Macharya ,MCV,28.7800602,78.4446426
Parvatipuram Tn ,PVPT,10.954622,78.4454696
Saneh Road ,SNX,29.6897746,78.4500609
Manamadurai Junction ,MNM,9.6821715,78.4537026
Manoharabad ,MOB,17.755421,78.454082
Jargaon ,JRJ,26.0199869,78.4581434
Datia ,DAA,25.6653262,78.4609393
Masaipet ,ME,17.9074495,78.4609854
Patchur ,PU,12.5937918,78.4616959
Wadiaram ,WDR,17.9587611,78.4652483
Srikrishn Nagar ,SKN,17.5058028,78.4656036
Begampet ,BMT,17.4447068,78.4663812
Babina ,BAB,25.25,78.4666667
Gowdavalli ,GWV,17.610793,78.468196
Amroha ,AMRO,28.9035728,78.4695111
Dabilpur ,DBV,17.674799,78.470864
Hirdagarh ,HRG,22.1348935,78.4723528
Jeruwa Khera ,JRK,23.9736934,78.4788352
Samalpatti ,SLY,12.3133287,78.4808775
Nandyal ,NDL,15.4785694,78.4830934
Sivaganga ,SVGA,9.8667,78.4833
Himayatnagar ,HEM,17.4020637,78.4840052
Medchal ,MED,17.6302223,78.4842132
Malikpeth ,MKPT,17.3728639,78.4894015
Pettaivayatalai ,PLI,10.901053,78.4894015
Kacheguda ,KCG,17.3892903,78.4965043
Malakpet Kcg ,MXT,17.389305,78.499601
Habibwala ,HBW,29.3585589,78.5000555
Secunderabad Junction ,SC,17.433258,78.502228
Kotdwara ,KTW,29.7439659,78.505198
Alwal ,ALW,17.503,78.507
Krishna ,KSN,16.2693474,78.5120549
Dhampur ,DPR,29.3059108,78.5121286
Bolarum ,BMO,17.5287165,78.5149691
Bolarum Bazar ,BOZ,17.517623,78.515685
Cavalry Barrcks ,CVB,17.495302,78.518963
Sitafal Mandi ,STPD,17.4248673,78.5199399
Lalaguda Gate ,LGDH,17.440841,78.524766
Ammuguda ,AMQ,17.486203,78.527026
Pandhurna ,PAR,21.5925296,78.5291706
Adilabad ,ADB,19.6667,78.5333
Yerraguntla ,YA,14.6333,78.5333
Malkajgiri ,MJF,17.454145,78.5340203
Safilguda ,SFX,17.4647377,78.5419503
Chakraj Mal ,CAJ,29.2458297,78.5462098
Dalelnagar ,DLQ,29.6007576,78.5462098
Isarwara ,ISH,23.9293231,78.5476296
Maula Ali ,MLY,17.4602921,78.5578389
Uppal ,OPL,17.4018092,78.5601892
Tirupattur Junction ,TPT,12.4981122,78.5615159
Marahra ,MH,27.7377444,78.5703437
Barbatpur ,BBTR,23.0481053,78.5731826
Pimpalkhuti ,PMKT,19.8239631,78.5788601
Mallapur ,MLP,17.442196,78.5802795
Shikohabad Junction ,SKB,26.996409,78.5827587
Katol ,KATL,21.2667,78.5833
Seohara ,SEO,29.2167,78.5833
Attur ,ATU,11.5992985,78.5944718
Wardha Junction ,WR,20.7330515,78.5948266
Asokhar ,AXK,26.552271,78.59731
Junnor Deo ,JNO,22.1907479,78.59731
Paramakkudi ,PMK,9.55,78.6
Jiyapuram ,JPM,10.8734354,78.6044052
Naryaoli,NOI,23.8966397,78.6050118
Bahjoi ,BJ,28.4,78.6167
Gazulapalli ,GZL,15.4016547,78.6185941
Timmapur ,TMX,18.918023,78.6185941
Jaithari ,JTI,23.2144497,78.6200129
Vaniyambadi ,VN,12.6950325,78.6218853
Kanth ,KNT,29.0576467,78.6256878
Singapuram Road ,SPRD,18.8632474,78.6302756
Pocharam ,PCZ,17.4283115,78.6427107
Kasganj ,KSJ,27.8047199,78.6436805
Bhugaon ,BPK,20.6716408,78.6460373
Jolarpettai ,JTJ,12.593271,78.6462567
Kamalapuram ,KKM,14.608384,78.662567
Sevagram ,SEGM,20.7349924,78.662567
Jaroli ,JRLI,25.975303,78.6654033
Kallal ,KAL,9.9842387,78.6654033
Bhadroli ,BBY,26.2147185,78.6710756
Salichauka Road ,SCKR,22.8341431,78.6766591
Ghatkesar ,GT,17.4494,78.6853
Sirsaul ,SSL,28.1476674,78.6880908
Tirchrpali Fort ,TP,10.8239076,78.6908056
Srirangam ,SRGM,10.8560297,78.6965972
Ponmlai Gld Rck ,GOC,10.7586271,78.7027985
Naglatula ,NGLT,26.9691574,78.7036854
Tiruchchirapali ,TPJ,10.7904833,78.7046725
Tiruchrpali Twn ,TPTN,10.7904833,78.7046725
Lodipur Bishnpr ,LDP,28.8719047,78.7091982
Selu ,SELU,20.8365072,78.7093556
Ambur ,AB,12.7903613,78.7166084
Barwa Sagar ,BWR,25.3748314,78.732033
Harthala ,HRH,28.8759285,78.7348674
Madanapalle Road ,MPL,13.5461422,78.7361974
Somalapuram ,SLM,12.8029148,78.7377016
Soron ,SRN,27.8833,78.75
Bhadan ,BDN,26.9746055,78.7532884
Ramgiri ,RGI,21.3022517,78.7586016
Parasia ,PUX,22.1905088,78.7617893
Gumthal ,GTF,28.4900865,78.7660395
Tiruverumbur ,TRB,10.7875,78.7763889
Moradabad ,MB,28.8315925,78.7782764
Chandausi Junction ,CH,28.4480507,78.7796105
Chand Siau ,CPS,28.4480507,78.7796105
Raja Ka Sahaspr ,RJK,28.6281915,78.7796742
Gadarwara ,GAR,22.9167,78.7833
Kundarkhi ,KD,28.6802176,78.7844548
Makronia ,MKRN,23.8545199,78.7844548
Bhind ,BIX,26.5642,78.7883
Karaikkudi Junction ,KKDI,10.067873,78.7924219
Bijora ,BJK,26.7426447,78.7957856
Bibinagar ,BN,17.4720171,78.7957856
Kailasapuram ,KLPM,10.7791403,78.7957856
Sausar ,SASR,21.6519825,78.7957856
Alampur ,ALMR,26.0238889,78.7958333
Lokdhikhera ,LDE,21.5700564,78.8014505
Jhansi Junction ,JHS,25.0457256,78.8049305
Kallkiri ,KCI,13.6427649,78.8099472
Chirgaon ,CGN,25.581862,78.817777
Lalgudi ,LLI,10.874405,78.8184432
Pudukkottai ,PDKT,10.379663,78.8208454
Cuddapah ,HX,14.4673541,78.8241339
Khadapa ,KDPA,14.4673541,78.8241339
Diguvametta ,DMT,15.3930685,78.8318937
Valathoor ,VLT,12.8898613,78.8394146
Hinganghat ,HGT,20.5471273,78.8439268
Ramakona ,RMO,21.7187437,78.8481734
Gangiwara ,GNW,22.0945718,78.8517121
Sagoni ,SAO,24.6749355,78.8580815
Kachhia Bridge ,KCO,27.9366896,78.8591872
Bohani ,BNE,22.9335403,78.8594969
Gudiyattam ,GYM,12.9447361,78.8709019
Umra Nala ,ULA,21.8763002,78.8736493
Kelod ,KLOD,21.4612335,78.8771871
Dalpatpur ,DLP,28.8207429,78.8774524
Chinna Salem ,CHSM,11.6328298,78.8778946
Bhongir ,BG,17.5108,78.8889
Karaboh ,KRBO,22.0877812,78.8920444
Lidhora Khurd ,LDA,23.8506344,78.8920444
Kukra Khapa ,KFP,21.813713,78.8964658
Jaswantnagar ,JGR,26.8833333,78.9
Jandrapeta ,JAQ,13.5452157,78.9024785
Ghadela ,GELA,21.7298257,78.9033627
Devakottai Road ,DKO,9.917666,78.9065418
Kalmeshwar ,KSWR,21.2334731,78.9118506
Giddalur ,GID,15.3763583,78.9250862
Linga ,LIG,21.9677658,78.93236
Chandok ,CNK,23.927077,78.9344814
Mundha Pande ,MPH,28.8035608,78.9358957
Bhitaura ,BTO,25.3422828,78.9373099
Nagireddipalli ,NRDP,17.4227565,78.940315
Saidapur ,SADP,17.6166435,78.9422595
Dabtara ,DUB,28.3903987,78.9465019
Ganj Dundwara ,GWA,27.7333333,78.95
Wani ,WANI,20.0667,78.95
Chhindwara Junction ,CWA,22.0576214,78.9537488
Moth ,MOTH,25.729284,78.954279
Girwar ,GW,23.824424,78.955693
Kashipur ,KPV,29.2104232,78.9618845
Nagpur Road ,NPRD,21.1462323,78.9631552
Laxmipur Road ,LKMR,18.8068782,78.969909
Budalur ,BAL,10.79679,78.9768999
Matlabpur ,MTB,28.3064203,78.9867948
Pukkirivari ,PRV,11.6329428,78.9896218
Takli Bhansali ,TKLB,21.3547618,78.9896218
Sonegaon ,SNN,21.1304435,78.9995154
Harsauli ,HSI,26.8154697,78.9996352
Warora ,WRR,20.2333,79
Buti Bori ,BTBR,20.9336166,79.002342
Ujhani ,UJH,28.0003235,79.0051685
Etawah ,ETW,26.8102685,79.0061968
Gangadhara ,GGAR,18.5792039,79.0087015
Uchippuli ,UCP,9.3131964,79.0136475
Chimidipalli ,CMDP,19.2577141,79.014101
Mainpuri ,MNQ,27.2333,79.0167
Patansaongi ,PTS,21.3303408,79.0207127
Zangalapalle ,ZPL,13.324065,79.0207314
Rampur ,RMU,28.7893041,79.0249516
Aler ,ALER,17.6401613,79.0362544
Somidevipalle ,SDV,15.453744,79.038552
Majri Junction ,MJRI,20.1391212,79.0431414
Wazerganj ,WZJ,28.2167,79.05
Virapur ,VP,18.2765726,79.0637994
Kareli ,KY,22.9167,79.0667
Pirumadara ,PRM,29.3356971,79.0673302
Shahzad Nagar ,SAR,28.7438389,79.0673302
Mailaram ,MWY,18.3720723,79.070861
Tiruvannamalai ,TNM,12.2252841,79.0746957
Ajni ,AJNI,21.1265819,79.0827761
Ariyalur ,ALU,11.1333,79.0833
Karengi ,KEG,28.3381707,79.0849825
Nagpur ,NGP,21.1458004,79.0881546
Kottapalli ,KYOP,18.4983878,79.0913365
Putalapattu ,PTT,13.3462826,79.0941604
Nandalur ,NRE,14.2709505,79.1068667
Khapri Kheda ,KPKD,21.2638998,79.1095137
Itwari ,ITR,21.1538784,79.1111018
Pakala Junction ,PAK,13.4512791,79.1144544
Pembarti ,PBP,17.6899028,79.1167483
Budaun ,BEM,28.0337088,79.1205419
Duganpur ,DUN,28.6678,79.1238059
Kaikolur ,KKLR,11.4008589,79.1248905
Bhandara Road ,BRD,21.1531352,79.1260567
Ramnagar ,RMR,29.3947643,79.1264997
Polur ,PRL,12.5106551,79.1268287
Mandapam ,MMM,9.2771255,79.1280402
Karimnagar ,KRMR,18.4385553,79.1288412
Vellore Cant ,VLR,12.9165167,79.1324986
Vellore Town ,VT,12.9165167,79.1324986
Thanjavur ,TJ,10.7869994,79.1378274
Mau Ranipur ,MRPR,25.2432171,79.1379196
Katpadi Junction ,KPD,12.9725625,79.1381988
Bazpur ,BPZ,29.1585345,79.1463868
Lakhna ,LKNA,26.648925,79.149598
Aonla ,AO,28.2833,79.15
Rukmapur ,RMY,18.5340273,79.1506201
Jhilmili ,JLY,22.0455782,79.1545005
Razampeta ,RJP,14.196678,79.1566324
Jangaon ,ZN,17.7288387,79.1604971
Tarigoppula ,TGU,17.9370742,79.1746054
Bhongaon ,BGQ,27.25518,79.1802481
Aung ,AUNG,27.1720685,79.1943534
Kamptee ,KP,21.2166193,79.1943534
Narsinghpur ,NU,22.95,79.2
Patharia ,PHA,23.9,79.2
Kemri ,KEMR,28.8066221,79.2028155
Tadali ,TAE,20.0057598,79.2056361
Nagaria Sadat ,NRS,28.5502149,79.2057242
Pullampet ,PMT,14.1223474,79.2098667
Pamban Junction ,PBM,9.2801699,79.2138129
Bharthana ,BNT,26.7571,79.2248
Tarlupadu ,TLU,15.6505041,79.2281975
Ait ,AIT,25.903336,79.229686
Pennadam ,PNDM,11.4071959,79.2408858
Markapur Road ,MRK,15.7389573,79.2643672
Obulavaripalli ,OBVP,14.0374777,79.2648481
Nalgonda ,NLDA,17.05,79.2667
Papanasam ,PML,10.9251895,79.2708047
Tirukoilur ,TRK,12.0140467,79.2720941
Madhosingh ,MBS,24.8548632,79.273304
Basharatganj ,BTG,28.2899739,79.2859863
Chanda Fort ,CAF,19.949374,79.2930312
Chandrapur ,CD,19.95,79.3
B Cement Nagar ,BEY,19.9680375,79.3039499
Mukundarayapurm ,MCN,12.9614587,79.3043021
Sank ,SANK,21.9627833,79.309937
Rameswaram ,RMM,9.2876254,79.3129291
Babupeth ,BUPH,19.9389831,79.3155716
Chandragiri ,CGI,13.5881118,79.3155716
Aslana ,ANA,23.9333333,79.3166667
Vridhachalam Junction ,VRI,11.5330801,79.3199571
Harpalpur ,HPP,25.2908438,79.3282481
Kaimganj ,KMJ,27.5540047,79.3296565
Chacher ,CHCR,21.2748892,79.3345858
Lakkadkot ,LKKD,19.590852,79.340923
Karak Bel ,KKB,22.9930537,79.3426832
Villuparam Junction ,VM,11.9659184,79.3467473
Balharshah ,BPQ,19.8333333,79.35
Koduru ,KOU,13.9569044,79.3505607
Gajjelakonda ,GJJ,15.767424,79.3690831
Ghorawadi ,GRWD,22.0437325,79.3775294
Ukhali ,UKH,20.7034222,79.3785852
Tharsa ,TAR,21.2263294,79.3810485
Peddapalli ,PDPL,18.6161825,79.3831599
Kumbakonam ,KMU,10.9616945,79.3881132
Manikgarh ,MAGH,19.7865689,79.3958273
Rudrapur City ,RUPC,28.9833333,79.4
Kothar ,KTR,21.7193257,79.4141214
Achalda ,ULD,26.7166667,79.4166667
Sholinghur ,SHU,13.1167,79.4167
Asifabad Road ,ASAF,19.2567771,79.4168477
Nidamangalam ,NMJ,10.7733144,79.4169356
Tirupati ,TPTY,13.6287557,79.4191795
Kandarpur ,KDRP,28.3063563,79.4211567
Izzatnagar ,IZN,28.4032003,79.4225637
Chaneti ,CHTI,28.310017,79.4264328
Hardua ,HDU,28.2457388,79.4264328
Saugor ,SGO,22.2671372,79.4288949
Bareilly City ,BC,28.3670355,79.4304381
Bareilly ,BE,28.3670355,79.4304381
Peddempet ,PPZ,18.7992813,79.432412
Wirur ,WIRR,19.638872,79.432412
Mancheral ,MCI,18.8667,79.4333
Wihirgaon ,VHGN,19.7253978,79.4411784
Damoh ,DMO,23.8380986,79.4421731
Odela ,OEA,18.4571153,79.4464792
Bhojipura Junction ,BPR,28.4944526,79.44771
Mannargudi ,MQ,10.6648689,79.4507152
Rechni Road ,RECH,19.1402698,79.4516659
Potkapalli ,PTKP,18.4229007,79.463357
Rewral ,RRL,21.2573666,79.4647633
Orai ,ORAI,25.9833,79.4667
Phaphund ,PHD,26.6,79.4667
Jamikunta ,JMKT,18.2890746,79.4738821
Mandamari ,MMZ,18.9871177,79.4791434
Aduturai ,ADT,11.0139879,79.4810674
Ramgundam ,RDM,18.7595503,79.4816378
Sirpur Kagazngr ,SKZR,19.3581456,79.4823339
Donakonda ,DKD,15.8338958,79.4844499
Pantnagar ,PBW,29.0210379,79.4897383
Belampalli ,BPA,19.0715572,79.4911758
Tangla ,TNL,21.531406,79.4914798
Baheri ,BHI,28.7833,79.5
Kichha ,KHH,28.9167,79.5
Hasanparthi Road ,HSP,18.0786172,79.5025507
Karhiya Bhadeli ,KYX,23.8592754,79.5034293
Renigunta Junction ,RU,13.6367887,79.5067679
Kazipet Junction ,KZJ,17.9743092,79.511512
Potlapadu ,POO,15.8737107,79.5246886
Haldwani ,HDW,29.2195268,79.530201
Pindrai ,PDE,23.4518434,79.5322424
Dhamora ,DAM,24.9765479,79.5406738
Seoni ,SEY,22.0868691,79.5434841
Bajrangarh ,BJG,24.8469444,79.5438889
Kathgodam ,KGM,29.2693264,79.5441198
Khat ,KHAT,21.2404726,79.5476994
Panruti ,PRT,11.7667,79.55
Rajapalayam ,RJPM,11.8150643,79.5582367
Amgaon ,AGN,20.7247045,79.5631537
Miryalaguda ,MRGA,16.8753106,79.5659633
Bandakpur ,BNU,23.85,79.5666667
Panapakam ,PAM,12.9224781,79.567368
Ekambarakuppam ,EKM,13.3173,79.5677
Vishnupuram ,VNUP,10.9345955,79.5743915
Kurichedu ,KCD,15.9065871,79.5786053
Venkatagiri ,VKI,13.9667,79.5833
Ramannapet ,RMNP,17.9786127,79.5842235
Ganeshganj ,GAJ,22.5106864,79.585628
Nagari ,NG,13.3200519,79.585628
Kaialsa ,KIV,10.4722719,79.5874608
Warangal ,WL,18.000055,79.588167
Singaram ,SGRM,17.8925257,79.5884369
Yerpedu ,YPD,13.6940232,79.5923428
Farrukhabad ,FBD,27.3826126,79.5940544
Tisua ,TSA,28.1352497,79.6010758
Tiruttani ,TRT,13.1758491,79.6109049
Rachagunnari ,RCG,13.7018321,79.613362
Fatehgarh ,FGR,27.3672904,79.6221368
Shikara ,SKY,22.6337844,79.6221368
Bansipur ,BSQP,23.5613952,79.6305599
Kamalganj ,KLJ,27.2590797,79.6319636
Thiruvarur Junction ,TVR,10.7650776,79.6335276
Kulpahar ,KLAR,25.316447,79.640899
Yataluru ,YAL,13.8922348,79.6431929
Tindivanam ,TMV,12.25,79.65
Yellakaru ,YLK,13.8462119,79.650386
Mayiladuturai J ,MV,11.1018399,79.6522218
Arakkonam ,AJJ,13.0752392,79.6558242
Peralam Jn ,PEM,10.9612134,79.6600343
Indargarh ,IDG,26.9362537,79.6712601
Ghatera ,GEA,23.8304504,79.6740663
Kalamna ,KAV,21.298372,79.6740663
Miranpur Katra ,MK,28.037142,79.6748555
Dusi ,DUSI,12.7763847,79.6768724
Nagbhir Junction ,NAB,20.5846349,79.6810815
Akbarpur ,ABP,26.0203301,79.689499
Chidambaram ,CDM,11.3981936,79.6953594
Sri Kalahasti ,KHT,13.76,79.7
Kanchipuram ,CJ,12.8341735,79.7036402
Vithisvarankol ,VDL,11.195726,79.7037894
Gursahaiganj ,GHJ,27.1167,79.7167
Nivari ,NEW,26.0492395,79.7259658
Sirkazhi ,SY,11.2333,79.7333
Tilhar ,TLH,27.9833333,79.7333333
Jhinjhak ,JJK,26.5622301,79.7357812
Kaniwara ,KWB,22.2127219,79.7385854
Vinukonda ,VKN,16.0497763,79.7405629
Cuddalore Port ,CUPJ,11.7072556,79.7427916
Kalpi ,KPI,26.120328,79.746251
Tumsar Road ,TMR,21.3419739,79.7513785
Vendodu ,VDD,14.0503259,79.7568107
Gudma ,GDM,22.0944111,79.7685348
Rasulabad ,RUB,26.6760579,79.7778351
Chaunrah ,CNH,26.1642608,79.7820394
Kondagunta ,KQA,14.0827266,79.7939506
Bheraghat ,BRGT,23.1305898,79.8023574
Nekonda ,NKD,17.7971189,79.803058
Barkhera ,BKA,28.4542659,79.8063021
Pilibhit Junction ,PBE,28.61563,79.8137405
Puducherry ,PDY,11.9138598,79.8144722
Sontalai ,SQL,23.230908,79.8170675
Savalyapuram ,SYM,16.1037913,79.8170675
Kaladehi ,KDHI,22.8787197,79.8293241
Bhoma ,BHV,22.2717461,79.8309316
Brahmanpalli ,BMPL,16.5173058,79.8310749
Melmaruvattur ,MLMR,12.4358776,79.8338276
Karaikal ,KIK,10.9254398,79.8380056
Pokhrayan ,PHN,26.2266671,79.8380778
Nagore ,NCR,10.8127803,79.8391001
Nagappattinam ,NGT,10.7688016,79.8394266
Mundikota ,MNU,21.3703722,79.8394783
Velankanni ,VLKN,10.6819262,79.8436796
Vellankanni ,VLNK,10.6819262,79.8436796
Chettinad ,CTND,10.7610264,79.8451457
Gudur Junction ,GDR,14.1483769,79.8454301
Binaiki ,VNK,23.2109209,79.8492812
Ghanpur ,GNP,18.2940831,79.8688837
Mahoba ,MBA,25.2920964,79.8724168
Bargi ,BUQ,22.9956926,79.8793833
Vellacheruvu ,VLE,16.1374333,79.8828828
Madurantakam ,MMK,12.5102166,79.8849354
Ibrahimpur ,IMR,27.1223493,79.8884819
Piduguralla ,PGRL,16.4851565,79.8900552
Majhola Pakarya ,MJZ,28.8181123,79.8903894
Kesamudram ,KDM,17.6978419,79.8912813
Rura ,RURA,26.4833,79.9
Keolari ,KLZ,22.3702354,79.9065587
Madan Mahal ,MML,23.1485573,79.9094751
Kaklur ,KKLU,13.1282936,79.9164717
Shahjehanpur ,SPN,27.8833,79.9167
Shahjahanpur ,SZP,27.8833,79.9167
Trivellore ,TRL,13.15,79.9167
Kannauj ,KJN,27.05519,79.91808
Khajuraho ,KURJ,24.8318452,79.9198549
Venkatachalam ,VKT,14.3228995,79.9234678
Guwarighat ,GRG,23.1099687,79.9276651
Tirora ,TRO,21.4128928,79.9332613
Howbadh Jablpur ,HBG,23.1560954,79.9347766
Adhartal ,ADTL,23.199395,79.9444526
Ghonsor ,GNS,22.6573723,79.9444526
Jabalpur ,JBP,23.1667,79.95
Shahabad ,SDB,27.65,79.95
Vedayapalem ,VDE,14.4105632,79.9582577
Bitragunta ,BTTR,14.7949897,79.9584397
Santamagulur ,SAB,16.1381138,79.9584397
Anjhi Shahabad ,AJI,27.6473115,79.9588378
Wadsa ,WSA,20.6188734,79.9612368
Khatima ,KHMA,28.9167,79.9667
Krishna Canal ,KCC,13.0883156,79.9736044
Talamanchi ,TMC,14.6170835,79.9752212
Munumaka ,MUK,16.2038034,79.9801152
Chengalpattu ,CGL,12.6839952,79.9833483
Nellore ,NLR,14.4425987,79.986456
Kachewani ,KWN,21.4418763,79.9881352
Padugupadu ,PGU,14.4803357,79.9913005
Kavali ,KVZ,14.9131806,79.9929798
Kodavaluru ,KJJ,14.5643322,79.9944699
Chakarpur ,CKK,28.9549048,80.0003875
Mahbubabad ,MABD,17.5975284,80.0015307
Tettu ,TTU,15.0493647,80.0017854
Pipardahi ,PED,23.0234758,80.0031833
Singaperumlkoil ,SKL,12.7578224,80.0045811
Ulavapadu ,UPD,15.1680594,80.0073768
Sullurupeta ,SPE,13.70215,80.0180717
Singarayakonda ,SKM,15.2511329,80.0227514
Bellamkonda ,BMKD,16.4786839,80.0255465
Tanguturu ,TNR,15.340253,80.0366161
Sudhani ,SUD,6.8758874,80.0402579
Surareddipalem ,SDM,15.4039549,80.0437123
Narasaraopet ,NRT,16.2353506,80.0479039
Ongole ,OGL,15.5057232,80.049922
Behtagokul ,BEG,27.5340803,80.0548894
Gosalpur ,GSPR,23.39902,80.0611759
Bilhaur ,BLU,26.8435447,80.0618743
Bakhleta ,BQQ,23.8738196,80.0632713
Dhapewara ,DPW,21.5373155,80.066065
Banbasa ,BNSA,28.9910774,80.0800325
Paman ,PMN,26.3600187,80.0835241
Avadi ,AVD,13.146444,80.084037
Jeonara Ph ,JONR,22.4656792,80.0842224
Kaurha ,KUF,27.4489659,80.1037721
Martur ,MR,15.9938431,80.1037721
Tanakpur ,TPU,29.0722375,80.1065646
Nainpur Junction ,NIR,22.4257605,80.1091824
Gummidipundi ,GPD,13.4067422,80.109357
Sihora Road ,SHR,23.4668142,80.1097933
Karavadi ,KRV,15.548994,80.1135454
Padriganj ,PNJ,22.3231096,80.1149414
Satulur ,STUR,16.2519118,80.1219215
Changotola ,CGLA,22.2278819,80.1247134
Tambaram ,TBM,12.9229153,80.1274558
Moharajpur ,MJP,25.226615,80.1275052
Hardoi ,HRI,27.394647,80.129931
Rithi ,REI,23.9,80.1333333
Garla ,GLA,17.4879616,80.1428223
Ichauli ,ICL,25.5707042,80.144254
Ammanabrolu ,ANB,15.5866602,80.1456496
Gundalukamma ,GKM,15.5500901,80.1459984
Sai P Nilayam ,SSPN,17.266633,80.146366
Barrajpur ,BJR,26.683333,80.15
Puranpur ,PP,28.5101837,80.1512317
Sattenapalle ,SAP,16.3944043,80.1512317
Khammam ,KMT,17.2472528,80.1514447
Dornakal Junction ,DKJ,17.446015,80.152976
Bharwa Sumerpur ,BSZ,25.8314466,80.1573899
Uppugunduru ,UGD,15.6731223,80.1665806
Ghatampur ,GTM,26.1476121,80.1707662
Jung Bahadurgnj ,JBG,27.7708829,80.1791368
Gondia Junction ,G,21.4618542,80.1920398
Balaghat Junction ,BTC,21.8116285,80.1998853
Nudurupadu ,NDPU,16.2808918,80.2119055
Bhimsen ,BZM,26.4226298,80.2181886
Tunia ,TUX,28.2017078,80.2251603
Mambalam ,MBM,13.03838,80.22784
Perambur ,PER,13.1178275,80.2349196
Khairar Junction ,KID,25.4521484,80.2361395
Chinna Ganjam ,CJM,15.698071,80.2377078
Kothari Road ,KTHD,13.0623222,80.2388138
Kadavakuduru ,KVDU,15.7264419,80.2558288
Peddakurapadu ,PKPU,16.4706408,80.2558288
Chennai Egmore ,MS,13.078635,80.261384
Bona Kalu ,BKL,17.0314688,80.2617359
Phirangipuram ,PPM,16.2890087,80.2627973
Awatarnagar ,ATNR,12.9820129,80.2639732
Arjuni ,AJU,21.0923497,80.2725524
Chennai Central ,MAS,13.083634,80.27421
Washermanpet ,WST,13.1320393,80.2783723
Attippattu ,AIP,13.2620818,80.2795195
Basin Bridge Junction ,BBQ,13.1393121,80.2819333
Sleemanabad Road ,SBD,23.6143114,80.2853541
Chennai Beach ,MSB,13.09183,80.292157
Royapuram ,RPM,13.1206642,80.2972441
Siripuram ,SRPM,16.4085151,80.2976316
Baghora ,BJQ,27.0941754,80.3129541
Vetapalemu ,VTM,15.7833,80.3167
Hamirpur Road ,HAR,26.440731,80.3259988
Charlapalli ,CHZ,17.4984451,80.3265331
Kanpur Anwrganj ,CPA,26.457218,80.3289701
Kampur ,KWM,26.449923,80.3318736
Prattiapadu ,PTPU,16.1817741,80.3352364
Maikalganj ,MINJ,27.7172982,80.3449831
Perecherla ,PRCA,16.3277837,80.3463754
Godavari ,GVN,17.6965978,80.3490934
Chirala ,CLX,15.8167,80.35
Mailani ,MLN,28.2833,80.35
Kanpur Central ,CNB,26.4543489,80.3512482
Madhira ,MDR,16.9232952,80.363081
Gangaghat ,GAG,26.5028753,80.3776957
Ipurupalem ,IPPM,15.8511736,80.3839584
Nallapadu ,NLPD,16.2990649,80.3867417
Mohammadkhera ,MQE,26.4326132,80.3926341
Banda Junction ,BNDA,25.3188359,80.3934857
Katni Murwara ,KMZ,23.85,80.4
Katni ,KTE,23.85,80.4
Katni South ,KTES,23.85,80.4
Stuartpuram ,SPF,15.8666854,80.4062219
Khurhand ,KHU,25.3039082,80.4415685
Jukehi ,JKE,24.0144937,80.4465594
Chima Pahad ,CMW,17.5161376,80.4639935
Bapatla ,BPP,15.9,80.4667
Gola Gokaranath ,GK,28.0833,80.4667
Guntur Junction ,GNT,16.3130471,80.4672264
Errupalem ,YP,16.823165,80.4688061
Maholi ,MAHO,27.6537759,80.475757
Bhira Kheri ,BIK,28.3227338,80.4827074
Unnao Junction ,ON,26.5490996,80.4867035
Salekasa ,SKS,21.3039678,80.491047
Karbigwan ,KBN,26.1971386,80.5042496
Appikatla ,APL,15.9729456,80.5091133
Sandila ,SAN,27.0585492,80.5160608
Vejandla ,VJA,16.2377434,80.5278143
Namburu ,NBR,16.3605672,80.5290416
Nidhani ,NDNI,22.6873072,80.5299541
Kondapalli ,KI,16.6209149,80.5413043
New Guntur ,NGNT,16.071559,80.5483687
Rupaund ,RPD,23.7386432,80.5577336
Sonik ,SIC,26.5867499,80.5612054
Nidubrolu ,NDO,16.0630862,80.5619671
Atarra ,ATE,25.2833,80.5667
Rayanapad ,RYP,16.5710275,80.5688428
Mangalagiri ,MAG,16.434144,80.5716199
Bindki Road ,BKO,26.0360176,80.5763644
Palia Kalan ,PLK,28.4308067,80.5799505
Modukuru ,MDKU,16.1302803,80.5813389
Chiluvur ,CLVR,16.3647153,80.5827272
Tsunduru ,TSR,16.1595028,80.5841155
Valiveru ,VRU,16.2006194,80.5924449
Darekasa ,DKS,21.2772964,80.593833
Kolanukonda ,KAQ,16.4521201,80.5986914
Sitanagaram ,SNM,16.4954583,80.6063253
Peddavadiapudi ,PVD,16.4153676,80.6077132
Vilayatkalan Road ,VYK,23.709416,80.6106191
Bhadrachalam Road ,BDCR,17.5503205,80.6160483
Kolakalur ,KLX,16.3036391,80.6174279
Vijayawada Junction ,BZA,16.5182353,80.6184687
Ajgain ,AJ,26.6135753,80.6243663
Duggirala ,DIG,16.3274353,80.628529
Bortalao ,BTL,21.2291333,80.6299166
Alluru Road ,AXR,15.9348528,80.6332747
Tenali Junction ,TEL,16.2422185,80.6401489
Dilawarnagar ,DIL,26.9605487,80.6632103
Gunadala ,GALA,16.5214011,80.6645973
Sitapur City ,SPC,27.5839037,80.666356
Sitapur ,STP,27.5839037,80.666356
Harauni ,HRN,26.7765033,80.6902409
Paniajob ,PJB,21.1841317,80.6940222
Bighapur ,BQP,26.355873,80.6944109
Sitapur Cant ,SCC,27.5574468,80.6994617
Malihabad ,MLD,26.916818,80.7075809
Bharat Kup ,BTKP,25.219929,80.7242136
Mustabada ,MBD,16.554936,80.7297571
Hargaon ,HA,27.7666667,80.7333333
Vemuru ,VMU,16.177978,80.7394572
Maihar ,MYR,24.2667,80.75
Akbarganj ,AKJ,27.5431563,80.7519272
Dongargarh ,DGG,21.18842,80.75875
Lanka ,LKA,7.873054,80.771797
Penumarru ,PUMU,16.1335425,80.7720136
Lakhimpur ,LMP,27.9490794,80.7824012
Bhattiprolu ,BQU,16.1028212,80.785171
Kakori ,KKJ,26.8693966,80.785171
Unchhera ,UHR,24.3952434,80.7962492
Fatehpur ,FTP,25.9333,80.8
Palikona ,POA,16.0609916,80.8042972
Gannavaram ,GWM,16.5418459,80.8048712
Majhagawan ,MJG,24.9136699,80.8073259
Jatkanhar ,JTR,21.1714586,80.8156324
Piparsand ,POF,26.7400129,80.8156324
Khanna Banjari ,KHBJ,23.8903082,80.823938
Manuguru ,MUGR,17.9312067,80.8266197
Budhi ,BDHY,30.1026419,80.8287826
Repalle ,RAL,16.0174248,80.8294747
Umaria Ispa Hlt ,UIH,23.5309797,80.8294747
Umaria ,UMR,23.5309797,80.8294747
Sidhauli ,SD,27.2833,80.8333
Satna ,STA,24.5833,80.8333
Pedda Avutapale ,PAVP,16.5537666,80.8350109
Banthra ,BTRA,26.689989,80.835114
Nuzvid ,NZD,16.7833,80.85
Chitahra ,CTHR,24.8582772,80.8626864
Musra ,MUA,21.166667,80.866667
Deori ,DOE,21.4666925,80.8682203
Unguturu ,VGT,16.5265369,80.8792871
Raghuraj Singh ,RRS,26.2557561,80.879572
Amausi ,AMS,26.765291,80.8903523
Telaprolu ,TOU,16.5810618,80.8917353
Bargawan ,BRGW,26.7993186,80.8972673
Muftiganj ,MFJ,26.8783218,80.9000331
Baihatola ,BATL,21.4625992,80.901416
Aishbagh ,ASH,26.8361858,80.9086757
Karkeli ,KKI,23.4591731,80.9124781
Belrayan ,BXM,28.378733,80.915444
Viravalli ,VRVL,16.611797,80.9169384
Daliganj ,DAL,26.8727982,80.9275954
Mahroi ,MFQ,23.9319306,80.9290685
Mohibullapur ,MBP,26.90965,80.9332155
Lucknow City ,LC,26.8465108,80.9466832
Lucknow Ne ,LJN,26.8465108,80.9466832
Lucknow Nr ,LKO,26.8465108,80.9466832
Badshahnagar ,BNZ,26.8700844,80.9591296
Tikunia ,TQN,28.38133,80.966583
Birsinghpur ,BRS,24.8003118,80.9732924
Nowrozabad ,NRZB,23.352474,80.9802002
Mohanlalganj ,MLJ,26.6895221,80.9843446
Biswan ,BVN,27.500287,80.991868
Gudivada Junction ,GDV,16.4410255,80.9926327
Nujella ,NUJ,16.3866774,81.0174917
Kankaha ,KKAH,26.6324937,81.0181821
Gomati Nagar ,GTNR,26.862338,81.0199613
Raj Nandgaon ,RJN,21.0971034,81.0302222
Jugaur ,JRR,27.0138784,81.0340601
Gambhiri Road ,GRF,25.9886682,81.04018
Gudlavalleru ,GVL,16.348665,81.0492446
Dalmau Junction ,DMW,26.0753474,81.0538167
Kavutaram ,KVM,16.3393388,81.0699462
Dalli Rajhara ,DRZ,20.5819,81.0758
Shrirajnagar ,SAGR,26.521784,81.0823645
Eluru ,EE,16.7106604,81.0952431
Rajapur Road ,RAJP,28.4324635,81.0952672
Khaga ,KGA,25.7719371,81.1058159
Powerpet ,PRH,16.7115401,81.1058159
Vadlamannadu ,VMD,16.3102986,81.1071952
Putlacheruvu ,PCU,16.4861923,81.1106432
Bachhrawan ,BCN,26.471033,81.112712
Mahmudabad Avdh ,MMB,27.2946646,81.1301221
Machelipatnam ,MTM,16.18438,81.134933
Kuneanganj ,KVG,26.395902,81.1396011
Safedabad ,SFH,26.9124013,81.1427031
Jalalpur Dhai ,JPD,26.0088772,81.1444264
Pedana ,PAV,16.2579279,81.1444264
Murhipar ,MUP,21.1832413,81.1489677
Nandgaon Road ,NAN,20.9889732,81.1492392
Chilakalapudi ,CLU,16.1940351,81.1499406
Simaria ,SAE,24.7936701,81.1526966
Mandavalli ,MDVL,16.513692,81.1568329
Denduluru ,DEL,16.7608986,81.166481
Harchandpur ,HCP,26.3441528,81.166481
Tadakalpudi ,TPY,16.8972472,81.1761279
Mohandi ,MHND,21.353597,81.1830178
Ghunghuti ,GGT,23.346581,81.1871515
Barabanki Junction ,BBK,27.1069737,81.1938304
Balod ,BXA,20.73,81.2047
